FID,NRO_,DEPARTAMEN,PROVINCIA,DISTRITO,NOMBRE_DEL,TIPO_DE_ES,NOMBRE_DE,CATEGORÍA,OBJETIVO_D,HORARIO_DE,Latitud,Longitud
0,1.000000000000000,APURIMAC,ABANCAY,ABANCAY,BELLAVISTA,ESTABLECIMIENTO DE SALUD SIN INTERNAMIENTO,CENTROS DE SALUD O CENTROS MEDICOS,I-3,PUBLICO EN GENERAL,12 HORAS,-13.6353998,-72.8932114
1,2.000000000000000,APURIMAC,ABANCAY,ABANCAY,METROPOLITANO,ESTABLECIMIENTO DE SALUD SIN INTERNAMIENTO,CENTROS DE SALUD O CENTROS MEDICOS,I-3,POBLACION EN GENERAL,8:00-20:00,-13.6335001,-72.8769226
2,3.000000000000000,APURIMAC,ABANCAY,ABANCAY,PUEBLO JOVEN CENTENARIO,ESTABLECIMIENTO DE SALUD CON INTERNAMIENTO,CENTROS DE SALUD CON CAMAS DE INTERNAMIENTO,I-4,PUBLICO EN GENERAL,12 HORAS,-13.6289997,-72.8846970
3,4.000000000000000,APURIMAC,ABANCAY,ABANCAY,HOSPITAL REGIONAL GUILLERMO DIAZ DE LA VEGA,ESTABLECIMIENTO DE SALUD CON INTERNAMIENTO,HOSPITALES O CLINICAS DE ATENCION GENERAL,II-2,POBLACION EN GENERAL,24 HORAS,-13.6402998,-72.8819809
4,5.000000000000000,APURIMAC,ABANCAY,ABANCAY,TABLADA ALTA,ESTABLECIMIENTO DE SALUD SIN INTERNAMIENTO,PUESTOS DE SALUD O POSTAS DE SALUD,I-2,POBLACION EN GENERAL,8:00-20:00,-13.6455002,-72.9000397
5,6.000000000000000,APURIMAC,ABANCAY,ABANCAY,ATUMPATA,ESTABLECIMIENTO DE SALUD SIN INTERNAMIENTO,PUESTOS DE SALUD O POSTAS DE SALUD,I-1,PUBLICO GENERAL,8:00-20:00,-13.6503000,-72.8517075
6,7.000000000000000,APURIMAC,ABANCAY,ABANCAY,SAN MARTIN,ESTABLECIMIENTO DE SALUD SIN INTERNAMIENTO,PUESTOS DE SALUD O POSTAS DE SALUD,I-1,PUBLICO GENERAL,12 HORAS,-13.6380997,-72.8912201
7,8.000000000000000,APURIMAC,ABANCAY,ABANCAY,KARCATERA,ESTABLECIMIENTO DE SALUD SIN INTERNAMIENTO,PUESTOS DE SALUD O POSTAS DE SALUD,I-1,PUBLICO EN GENERAL,12 HORAS,-13.6108999,-72.9541092
8,9.000000000000000,APURIMAC,ABANCAY,ABANCAY,MARCAHUASI,ESTABLECIMIENTO DE SALUD SIN INTERNAMIENTO,PUESTOS DE SALUD O POSTAS DE SALUD,I-1,PUBLICO EN GENERAL,8:00-20:00,-13.6278000,-72.8594208
9,10.000000000000000,APURIMAC,ABANCAY,ABANCAY,QUISAPATA,ESTABLECIMIENTO DE SALUD SIN INTERNAMIENTO,PUESTOS DE SALUD O POSTAS DE SALUD,I-2,PUBLICO EN GENERAL,12 HORAS,-13.6801996,-72.8691101
10,11.000000000000000,APURIMAC,ABANCAY,ABANCAY,HUAYLLABAMBA,ESTABLECIMIENTO DE SALUD SIN INTERNAMIENTO,PUESTOS DE SALUD O POSTAS DE SALUD,I-1,POBLACION EN GENERAL,12 HORAS,-13.6191998,-72.9155502
11,12.000000000000000,APURIMAC,ABANCAY,ABANCAY,VILLAGLORIA,ESTABLECIMIENTO DE SALUD SIN INTERNAMIENTO,CENTROS DE SALUD O CENTROS MEDICOS,I-3,PUBLICO EN GENERAL,8:00-20:00,-13.6329002,-72.8698425
12,13.000000000000000,APURIMAC,ABANCAY,ABANCAY,PATIBAMBA BAJA,ESTABLECIMIENTO DE SALUD SIN INTERNAMIENTO,PUESTOS DE SALUD O POSTAS DE SALUD,I-2,POBLACION EN GENERAL,8:00-19:00,-13.5190001,-73.7238617
13,14.000000000000000,APURIMAC,ABANCAY,CHACOCHE,CHACOCHE,ESTABLECIMIENTO DE SALUD SIN INTERNAMIENTO,PUESTOS DE SALUD O POSTAS DE SALUD,I-1,PUBLICO EN GENERAL,8:00-20:00,-13.9418001,-72.9902573
14,15.000000000000000,APURIMAC,ABANCAY,CHACOCHE,CASINCHIHUA,ESTABLECIMIENTO DE SALUD SIN INTERNAMIENTO,CENTROS DE SALUD O CENTROS MEDICOS,I-3,PUBLICO EN GENERAL,12 HORAS,-13.8751001,-73.0268478
15,16.000000000000000,APURIMAC,ABANCAY,CHACOCHE,ANCHICHA,ESTABLECIMIENTO DE SALUD SIN INTERNAMIENTO,PUESTOS DE SALUD O POSTAS DE SALUD,I-1,PUBLICO GENERAL,12 HORAS,-13.9857998,-73.0072784
16,17.000000000000000,APURIMAC,ABANCAY,CIRCA,OCOBAMBA,ESTABLECIMIENTO DE SALUD SIN INTERNAMIENTO,PUESTOS DE SALUD O POSTAS DE SALUD,I-1,PUBLICO GENERAL,12 HORAS,-13.8781004,-72.9326248
17,18.000000000000000,APURIMAC,ABANCAY,CIRCA,OCOBAMBA,ESTABLECIMIENTO DE SALUD SIN INTERNAMIENTO,PUESTOS DE SALUD O POSTAS DE SALUD,I-1,PUBLICO GENERAL,12 HORAS,-13.8781004,-72.9326248
18,19.000000000000000,APURIMAC,ABANCAY,CIRCA,HUIRAHUACHO,ESTABLECIMIENTO DE SALUD SIN INTERNAMIENTO,PUESTOS DE SALUD O POSTAS DE SALUD,I-1,PUBLICO EN GENERAL,12 HORAS,-13.8772001,-72.9759750
19,20.000000000000000,APURIMAC,ABANCAY,CIRCA,CIRCA,ESTABLECIMIENTO DE SALUD SIN INTERNAMIENTO,PUESTOS DE SALUD O POSTAS DE SALUD,I-2,PUBLICO EN GENERAL,12 HORAS,-13.8788004,-72.8754730
20,21.000000000000000,APURIMAC,ABANCAY,CIRCA,TAMBURQUI,ESTABLECIMIENTO DE SALUD SIN INTERNAMIENTO,PUESTOS DE SALUD O POSTAS DE SALUD,I-2,PUBLICO GENERAL,12 HORAS,-13.9721003,-72.8862305
21,22.000000000000000,APURIMAC,ABANCAY,CURAHUASI,SAN LUIS,ESTABLECIMIENTO DE SALUD SIN INTERNAMIENTO,PUESTOS DE SALUD O POSTAS DE SALUD,I-2,PUBLICO EN GENERAL,12 HORAS,-13.5426998,-72.7859955
22,23.000000000000000,APURIMAC,ABANCAY,CURAHUASI,EL CARMEN,ESTABLECIMIENTO DE SALUD SIN INTERNAMIENTO,PUESTOS DE SALUD O POSTAS DE SALUD,I-1,PUBLICO EN GENERAL,8:00-20:00,-13.5508003,-72.6216431
23,24.000000000000000,APURIMAC,ABANCAY,CURAHUASI,PROGRESO LARATA,ESTABLECIMIENTO DE SALUD SIN INTERNAMIENTO,PUESTOS DE SALUD O POSTAS DE SALUD,I-1,PUBLICO GENERAL,8:00-20:00,-13.6801996,-72.4631958
24,25.000000000000000,APURIMAC,ABANCAY,CURAHUASI,PISONAYPATA,ESTABLECIMIENTO DE SALUD SIN INTERNAMIENTO,PUESTOS DE SALUD O POSTAS DE SALUD,I-2,PUBLICO EN GENERAL,8:00-20:00,-13.5564003,-72.7420959
25,26.000000000000000,APURIMAC,ABANCAY,CURAHUASI,OCCORURO,ESTABLECIMIENTO DE SALUD SIN INTERNAMIENTO,PUESTOS DE SALUD O POSTAS DE SALUD,I-2,PUBLICO EN GENERAL,8.00-20:00,-13.5395002,-72.7515793
26,27.000000000000000,APURIMAC,ABANCAY,CURAHUASI,CONCACHA,ESTABLECIMIENTO DE SALUD SIN INTERNAMIENTO,PUESTOS DE SALUD O POSTAS DE SALUD,I-2,PUBLICO EN GENERAL,8:00-20:00,-13.5521002,-72.7959442
27,28.000000000000000,APURIMAC,ABANCAY,CURAHUASI,CCOLLPA,ESTABLECIMIENTO DE SALUD SIN INTERNAMIENTO,PUESTOS DE SALUD O POSTAS DE SALUD,I-2,PUBLICO EN GENERAL,8:00-20:00,-13.7013998,-72.4957352
28,29.000000000000000,APURIMAC,ABANCAY,CURAHUASI,CCOLLPA,ESTABLECIMIENTO DE SALUD SIN INTERNAMIENTO,PUESTOS DE SALUD O POSTAS DE SALUD,I-2,PUBLICO EN GENERAL,8:00-20:00,-13.7013998,-72.4957352
29,30.000000000000000,APURIMAC,ABANCAY,CURAHUASI,BACAS,ESTABLECIMIENTO DE SALUD SIN INTERNAMIENTO,PUESTOS DE SALUD O POSTAS DE SALUD,I-2,PUBLICO EN GENERAL,8:00-20:00,-13.5718002,-72.7609406
30,31.000000000000000,APURIMAC,ABANCAY,CURAHUASI,ANTILLA,ESTABLECIMIENTO DE SALUD SIN INTERNAMIENTO,PUESTOS DE SALUD O POSTAS DE SALUD,I-2,PUBLICO EN GENERAL,8:00-20:00,-13.6454000,-72.5729599
31,32.000000000000000,APURIMAC,ABANCAY,CURAHUASI,CURAHUASI,ESTABLECIMIENTO DE SALUD CON INTERNAMIENTO,CENTROS DE SALUD CON CAMAS DE INTERNAMIENTO,I-4,PUBLICO OBJETIVO,24 HORAS,-13.5368004,-72.6980515
32,33.000000000000000,APURIMAC,ABANCAY,CURAHUASI,TOTORAY,ESTABLECIMIENTO DE SALUD SIN INTERNAMIENTO,PUESTOS DE SALUD O POSTAS DE SALUD,I-1,POBLCION EN GENERAL,8:00-18:00,-13.5690002,-72.7786407
33,34.000000000000000,APURIMAC,ABANCAY,CURAHUASI,CHUNA MARJUNI,ESTABLECIMIENTO DE SALUD SIN INTERNAMIENTO,PUESTOS DE SALUD O POSTAS DE SALUD,I-1,PUBLICO EN GENERAL,8:00-20:00,-13.6729002,-72.6572418
34,35.000000000000000,APURIMAC,ABANCAY,CURAHUASI,CCOCHUA,ESTABLECIMIENTO DE SALUD SIN INTERNAMIENTO,PUESTOS DE SALUD O POSTAS DE SALUD,I-2,PUBLICO EN GENERAL,8:00-20:00,-13.5664997,-72.7006149
35,36.000000000000000,APURIMAC,ABANCAY,HUANIPACA,KARQUEQUI,ESTABLECIMIENTO DE SALUD SIN INTERNAMIENTO,PUESTOS DE SALUD O POSTAS DE SALUD,I-1,POBLACION EN GENERAL,8.00-20:00,-13.4573002,-73.0452423
36,37.000000000000000,APURIMAC,ABANCAY,HUANIPACA,TACMARA,ESTABLECIMIENTO DE SALUD SIN INTERNAMIENTO,PUESTOS DE SALUD O POSTAS DE SALUD,I-2,PUBLICO EN GENERAL,8:00-20:00,-13.4782000,-73.0557785
37,38.000000000000000,APURIMAC,ABANCAY,HUANIPACA,CCOYA,ESTABLECIMIENTO DE SALUD SIN INTERNAMIENTO,PUESTOS DE SALUD O POSTAS DE SALUD,I-1,PUBLICO GENERAL,8:00-20:00,-13.5383997,-72.9995651
38,39.000000000000000,APURIMAC,ABANCAY,HUANIPACA,HUANIPACA,ESTABLECIMIENTO DE SALUD SIN INTERNAMIENTO,CENTROS DE SALUD O CENTROS MEDICOS,I-3,PUBLICO EN GENERAL,8:00-20:00,-13.4912004,-72.9345245
39,40.000000000000000,APURIMAC,ABANCAY,HUANIPACA,HUANCHULLA,ESTABLECIMIENTO DE SALUD SIN INTERNAMIENTO,PUESTOS DE SALUD O POSTAS DE SALUD,I-1,PUBLICO EN GENERAL,8:00-20:00,-13.4940996,-73.0253220
40,41.000000000000000,APURIMAC,ABANCAY,HUANIPACA,KIUÑALLA,ESTABLECIMIENTO DE SALUD SIN INTERNAMIENTO,PUESTOS DE SALUD O POSTAS DE SALUD,I-1,PUBLICO EN GENERAL,12 HORAS,-13.4376001,-72.8959351
41,42.000000000000000,APURIMAC,ABANCAY,LAMBRAMA,CAYPE,ESTABLECIMIENTO DE SALUD SIN INTERNAMIENTO,PUESTOS DE SALUD O POSTAS DE SALUD,I-2,PUBLICO EN GENERAL,8:00-20:00,-13.7966995,-72.8312912
42,43.000000000000000,APURIMAC,ABANCAY,LAMBRAMA,ATANCAMA,ESTABLECIMIENTO DE SALUD SIN INTERNAMIENTO,PUESTOS DE SALUD O POSTAS DE SALUD,I-1,PUBLICO EN GENERAL,ACTUALIZAR,-13.8687000,-72.7847595
43,44.000000000000000,APURIMAC,ABANCAY,LAMBRAMA,LAMBRAMA,ESTABLECIMIENTO DE SALUD CON INTERNAMIENTO,CENTROS DE SALUD CON CAMAS DE INTERNAMIENTO,I-4,PUBLICO EN GENERAL,8:00-20:00,-13.8711996,-72.7687225
44,45.000000000000000,APURIMAC,ABANCAY,LAMBRAMA,CRUZ PATA (LAMBRAMA),ESTABLECIMIENTO DE SALUD SIN INTERNAMIENTO,PUESTOS DE SALUD O POSTAS DE SALUD,I-1,PUBLICO EN GENERAL,8:00-20:00,-13.7662001,-72.8519821
45,46.000000000000000,APURIMAC,ABANCAY,LAMBRAMA,SUNCHO,ESTABLECIMIENTO DE SALUD SIN INTERNAMIENTO,PUESTOS DE SALUD O POSTAS DE SALUD,I-1,PUBLICO EN GENERAL,8:00-20:00,-13.7958002,-72.8504257
46,47.000000000000000,APURIMAC,ABANCAY,LAMBRAMA,SIUSAY,ESTABLECIMIENTO DE SALUD SIN INTERNAMIENTO,PUESTOS DE SALUD O POSTAS DE SALUD,I-1,PUBLICO EN GENERAL,8:00-20:00,-13.8278999,-72.8264618
47,48.000000000000000,APURIMAC,ABANCAY,LAMBRAMA,MARJUNI,ESTABLECIMIENTO DE SALUD SIN INTERNAMIENTO,PUESTOS DE SALUD O POSTAS DE SALUD,I-2,PUBLICO EN GENERAL,8:00-20:00,-13.8406000,-72.7349472
48,49.000000000000000,APURIMAC,ABANCAY,PICHIRHUA,COTARMA,ESTABLECIMIENTO DE SALUD SIN INTERNAMIENTO,PUESTOS DE SALUD O POSTAS DE SALUD,I-1,PUBLICO EN GENERAL,12 HORAS,-13.7841997,-72.9819107
49,50.000000000000000,APURIMAC,ABANCAY,PICHIRHUA,CHALHUANI,ESTABLECIMIENTO DE SALUD SIN INTERNAMIENTO,PUESTOS DE SALUD O POSTAS DE SALUD,I-1,PUBLICO EN GENERAL,12 HORAS,-13.8235998,-73.0424957
50,51.000000000000000,APURIMAC,ABANCAY,PICHIRHUA,OCRABAMBA,ESTABLECIMIENTO DE SALUD SIN INTERNAMIENTO,PUESTOS DE SALUD O POSTAS DE SALUD,I-1,PUBLICO GENERAL,12 HORAS,-13.8548002,-73.0857010
51,52.000000000000000,APURIMAC,ABANCAY,PICHIRHUA,ALLPACHACA,ESTABLECIMIENTO DE SALUD SIN INTERNAMIENTO,PUESTOS DE SALUD O POSTAS DE SALUD,I-1,POBLACION EN GENERAL,ACTUALIZAR,-13.7083998,-72.9621506
52,53.000000000000000,APURIMAC,ABANCAY,PICHIRHUA,LUCUCHANGA,ESTABLECIMIENTO DE SALUD SIN INTERNAMIENTO,PUESTOS DE SALUD O POSTAS DE SALUD,I-2,PUBLICO EN GENERAL,12 HORAS,-13.7505999,-72.9713364
53,54.000000000000000,APURIMAC,ABANCAY,PICHIRHUA,PICHIRHUA,ESTABLECIMIENTO DE SALUD SIN INTERNAMIENTO,PUESTOS DE SALUD O POSTAS DE SALUD,I-1,PUBLICO EN GENERAL,8:00-20:00,-13.8603001,-73.0730209
54,55.000000000000000,APURIMAC,ABANCAY,PICHIRHUA,PISCAYA,ESTABLECIMIENTO DE SALUD SIN INTERNAMIENTO,PUESTOS DE SALUD O POSTAS DE SALUD,I-1,POBLACION EN GENERAL,12 HORAS,-13.7566004,-73.0003052
55,56.000000000000000,APURIMAC,ABANCAY,PICHIRHUA,ACCOPAMPA,ESTABLECIMIENTO DE SALUD SIN INTERNAMIENTO,PUESTOS DE SALUD O POSTAS DE SALUD,I-1,PUBLICO EN GENERAL,12 HORAS,-13.7847004,-72.9452438
56,57.000000000000000,APURIMAC,ABANCAY,PICHIRHUA,AUQUIBAMBA,ESTABLECIMIENTO DE SALUD SIN INTERNAMIENTO,PUESTOS DE SALUD O POSTAS DE SALUD,I-1,PUBLICO EN GENERAL,12 HORAS,-13.6794996,-72.9532394
57,58.000000000000000,APURIMAC,ABANCAY,SAN PEDRO DE CACHORA,CACHORA,ESTABLECIMIENTO DE SALUD SIN INTERNAMIENTO,CENTROS DE SALUD O CENTROS MEDICOS,I-3,POBLACIONE EN GENERAL,ACTUALIZAR,-13.5101004,-72.8126144
58,59.000000000000000,APURIMAC,ABANCAY,TAMBURCO,TAMBURCO,ESTABLECIMIENTO DE SALUD CON INTERNAMIENTO,CENTROS DE SALUD CON CAMAS DE INTERNAMIENTO,I-4,PUBLICO EN GENERAL,8:00-20:00,-13.6258001,-72.8733521
59,60.000000000000000,APURIMAC,ABANCAY,TAMBURCO,KERAPATA,ESTABLECIMIENTO DE SALUD SIN INTERNAMIENTO,PUESTOS DE SALUD O POSTAS DE SALUD,I-1,PÚBLICO GENERAL,7:30 - 19:30,-13.5993996,-72.8606339
60,61.000000000000000,APURIMAC,ABANCAY,TAMBURCO,SAN ANTONIO (TAMBURCO),ESTABLECIMIENTO DE SALUD SIN INTERNAMIENTO,PUESTOS DE SALUD O POSTAS DE SALUD,I-1,PUBLICO EN GENERAL,8:00 - 20:00,-13.6056995,-72.8568954
61,62.000000000000000,APURIMAC,ANDAHUAYLAS,ANDAHUAYLAS,SOCCÑACANCHA,ESTABLECIMIENTO DE SALUD SIN INTERNAMIENTO,PUESTOS DE SALUD O POSTAS DE SALUD,I-1,POBLACION GENERAL,24 HORAS,-13.7412004,-73.4173889
62,63.000000000000000,APURIMAC,ANDAHUAYLAS,ANDAHUAYLAS,HOSPITAL SUBREGIONAL DE ANDAHUAYLAS,ESTABLECIMIENTO DE SALUD CON INTERNAMIENTO,HOSPITALES O CLINICAS DE ATENCION GENERAL,II-2,POBLACION GENERAL,24 HORAS,-13.6577997,-73.3819885
63,64.000000000000000,APURIMAC,ANDAHUAYLAS,ANDAHUAYLAS,ANDAHUAYLAS,ESTABLECIMIENTO DE SALUD SIN INTERNAMIENTO,CENTROS DE SALUD O CENTROS MEDICOS,I-3,POBLACION GENERAL,24 HORAS,-13.6562996,-73.3820343
64,65.000000000000000,APURIMAC,ANDAHUAYLAS,ANDAHUAYLAS,SUCARAYLLA,ESTABLECIMIENTO DE SALUD SIN INTERNAMIENTO,PUESTOS DE SALUD O POSTAS DE SALUD,I-1,POBLACION GENERAL,12 HORAS,-13.7337999,-73.3931198
65,66.000000000000000,APURIMAC,ANDAHUAYLAS,ANDAHUAYLAS,SUCARAYLLA,ESTABLECIMIENTO DE SALUD SIN INTERNAMIENTO,PUESTOS DE SALUD O POSTAS DE SALUD,I-1,POBLACION GENERAL,12 HORAS,-13.7337999,-73.3931198
66,67.000000000000000,APURIMAC,ANDAHUAYLAS,ANDAHUAYLAS,CCEÑUARAN,ESTABLECIMIENTO DE SALUD SIN INTERNAMIENTO,PUESTOS DE SALUD O POSTAS DE SALUD,I-1,POBLACION GENERAL,24 HORAS,-13.8045998,-73.3916702
67,68.000000000000000,APURIMAC,ANDAHUAYLAS,ANDAHUAYLAS,HUINCHOS,ESTABLECIMIENTO DE SALUD SIN INTERNAMIENTO,PUESTOS DE SALUD O POSTAS DE SALUD,I-2,POBLACION GENERAL,24 HORAS,-13.7119999,-73.3491287
68,69.000000000000000,APURIMAC,ANDAHUAYLAS,ANDAHUAYLAS,CHOCCEPUQUIO,ESTABLECIMIENTO DE SALUD SIN INTERNAMIENTO,PUESTOS DE SALUD O POSTAS DE SALUD,I-2,POBLACION GENERAL,12 HORAS,-13.6703997,-73.4077377
69,70.000000000000000,APURIMAC,ANDAHUAYLAS,ANDAHUAYLAS,HOSPITAL SUBREGIONAL DE ANDAHUAYLAS,ESTABLECIMIENTO DE SALUD CON INTERNAMIENTO,HOSPITALES O CLINICAS DE ATENCION GENERAL,II-2,POBLACION GENERAL,24 HORAS,-13.6577997,-73.3819885
70,71.000000000000000,APURIMAC,ANDAHUAYLAS,ANDARAPA,ANDARAPA,ESTABLECIMIENTO DE SALUD CON INTERNAMIENTO,CENTROS DE SALUD CON CAMAS DE INTERNAMIENTO,I-4,POBLACION GENERAL,24 HORAS,-13.5277004,-73.3665390
71,72.000000000000000,APURIMAC,ANDAHUAYLAS,ANDARAPA,SAN JUAN DE MIRAFLORES,ESTABLECIMIENTO DE SALUD SIN INTERNAMIENTO,PUESTOS DE SALUD O POSTAS DE SALUD,I-1,POBLACION GENERAL,24 HORAS,-13.5648003,-73.3663406
72,73.000000000000000,APURIMAC,ANDAHUAYLAS,ANDARAPA,CHANTA UMACA,ESTABLECIMIENTO DE SALUD SIN INTERNAMIENTO,PUESTOS DE SALUD O POSTAS DE SALUD,I-1,POBLACION GENERAL,24 HORAS,-13.5098000,-73.3324585
73,74.000000000000000,APURIMAC,ANDAHUAYLAS,ANDARAPA,HUANCAS,ESTABLECIMIENTO DE SALUD SIN INTERNAMIENTO,PUESTOS DE SALUD O POSTAS DE SALUD,I-2,POBLACION GENERAL,24 HORAS,-13.4757996,-73.3727264
74,75.000000000000000,APURIMAC,ANDAHUAYLAS,ANDARAPA,HUAMPICA,ESTABLECIMIENTO DE SALUD SIN INTERNAMIENTO,PUESTOS DE SALUD O POSTAS DE SALUD,I-2,POBLACION GENERAL,24 HORAS,-13.5072002,-73.4387665
75,76.000000000000000,APURIMAC,ANDAHUAYLAS,ANDARAPA,ILLAHUASI,ESTABLECIMIENTO DE SALUD SIN INTERNAMIENTO,PUESTOS DE SALUD O POSTAS DE SALUD,I-2,POBLACION GENERAL,24 HORAS,-13.5248003,-73.3443451
76,77.000000000000000,APURIMAC,ANDAHUAYLAS,ANDARAPA,PUYHUALLA,ESTABLECIMIENTO DE SALUD SIN INTERNAMIENTO,CENTROS DE SALUD O CENTROS MEDICOS,I-3,POBLACION GENERAL,24 HORAS,-13.5506001,-73.3445511
77,78.000000000000000,APURIMAC,ANDAHUAYLAS,CHIARA,CHIARA,ESTABLECIMIENTO DE SALUD SIN INTERNAMIENTO,PUESTOS DE SALUD O POSTAS DE SALUD,I-2,POBLACION GENERAL,24 HORAS,-13.8682003,-73.6624146
78,79.000000000000000,APURIMAC,ANDAHUAYLAS,CHIARA,NUEVA HUILLCAYHUA,ESTABLECIMIENTO DE SALUD SIN INTERNAMIENTO,PUESTOS DE SALUD O POSTAS DE SALUD,I-1,POBLACION GENERAL,12 HORAS,-13.8909998,-73.5856476
79,80.000000000000000,APURIMAC,ANDAHUAYLAS,CHIARA,SANTIAGO DE YAURECC,ESTABLECIMIENTO DE SALUD SIN INTERNAMIENTO,PUESTOS DE SALUD O POSTAS DE SALUD,I-1,POBLACION GENERAL,8:00 -17:00,-13.9039001,-73.6539536
80,81.000000000000000,APURIMAC,ANDAHUAYLAS,HUANCARAMA,SAN JOSE DE ARCAHUA,ESTABLECIMIENTO DE SALUD SIN INTERNAMIENTO,PUESTOS DE SALUD O POSTAS DE SALUD,I-1,PUBLICO EN GENERAL,8:00-20:00,-13.6683998,-73.0544586
81,82.000000000000000,APURIMAC,ANDAHUAYLAS,HUANCARAMA,PICHIUPATA,ESTABLECIMIENTO DE SALUD SIN INTERNAMIENTO,PUESTOS DE SALUD O POSTAS DE SALUD,I-2,PUBLICO EN GENERAL,8:00 - 20:00,-13.6759996,-73.0758286
82,83.000000000000000,APURIMAC,ANDAHUAYLAS,HUANCARAMA,PICHIUPATA,ESTABLECIMIENTO DE SALUD SIN INTERNAMIENTO,PUESTOS DE SALUD O POSTAS DE SALUD,I-2,PUBLICO EN GENERAL,8:00 - 20:00,-13.6759996,-73.0758286
83,84.000000000000000,APURIMAC,ANDAHUAYLAS,HUANCARAMA,HUANCARAMA,ESTABLECIMIENTO DE SALUD CON INTERNAMIENTO,CENTROS DE SALUD CON CAMAS DE INTERNAMIENTO,I-4,PUBLICO EN GENERAL,24 HORAS,-13.6420002,-73.0904694
84,85.000000000000000,APURIMAC,ANDAHUAYLAS,HUANCARAMA,PAMPAHURA,ESTABLECIMIENTO DE SALUD SIN INTERNAMIENTO,PUESTOS DE SALUD O POSTAS DE SALUD,I-1,PUBLICO EN GENERAL,8:00-20:00,-13.6549997,-73.0442276
85,86.000000000000000,APURIMAC,ANDAHUAYLAS,HUANCARAMA,SAYHUA,ESTABLECIMIENTO DE SALUD SIN INTERNAMIENTO,PUESTOS DE SALUD O POSTAS DE SALUD,I-1,PUBLICO EN GENERAL,8:00-20:00,-13.6815996,-73.0620804
86,87.000000000000000,APURIMAC,ANDAHUAYLAS,HUANCARAMA,LOS ANGELES,ESTABLECIMIENTO DE SALUD SIN INTERNAMIENTO,PUESTOS DE SALUD O POSTAS DE SALUD,I-1,PUBLICO EN GENERAL,12 HORAS,-13.6834002,-73.0321732
87,88.000000000000000,APURIMAC,ANDAHUAYLAS,HUANCARAMA,SOTAPA,ESTABLECIMIENTO DE SALUD SIN INTERNAMIENTO,PUESTOS DE SALUD O POSTAS DE SALUD,I-1,PUBLICO EN GENERAL,8:00-20:00,-13.6872997,-73.0235367
88,89.000000000000000,APURIMAC,ANDAHUAYLAS,HUANCARAMA,KARHUAKAHUA,ESTABLECIMIENTO DE SALUD SIN INTERNAMIENTO,PUESTOS DE SALUD O POSTAS DE SALUD,I-2,PUBLICO EN GENERAL,8:00-20:00,-13.6667995,-72.9992981
89,90.000000000000000,APURIMAC,ANDAHUAYLAS,HUANCARAMA,MATECCLLA,ESTABLECIMIENTO DE SALUD SIN INTERNAMIENTO,PUESTOS DE SALUD O POSTAS DE SALUD,I-1,PUBLICO EN GENERAL,8:00-20:00,-13.6513004,-73.0538635
90,91.000000000000000,APURIMAC,ANDAHUAYLAS,HUANCARAMA,LLACTABAMBA,ESTABLECIMIENTO DE SALUD SIN INTERNAMIENTO,PUESTOS DE SALUD O POSTAS DE SALUD,I-1,PUBLICO EN GENERAL,8:00-20:00,-13.6306000,-72.9992523
91,92.000000000000000,APURIMAC,ANDAHUAYLAS,HUANCARAY,HUANCARAY,ESTABLECIMIENTO DE SALUD CON INTERNAMIENTO,CENTROS DE SALUD CON CAMAS DE INTERNAMIENTO,I-4,POBLACION GENERAL,24 HORAS,-13.7588997,-73.5270615
92,93.000000000000000,APURIMAC,ANDAHUAYLAS,HUANCARAY,OCCOCHO,ESTABLECIMIENTO DE SALUD SIN INTERNAMIENTO,PUESTOS DE SALUD O POSTAS DE SALUD,I-1,POBLACION GENERAL,12 HORAS,-13.7832003,-73.5404816
93,94.000000000000000,APURIMAC,ANDAHUAYLAS,HUANCARAY,CCANCCAYLLO,ESTABLECIMIENTO DE SALUD SIN INTERNAMIENTO,PUESTOS DE SALUD O POSTAS DE SALUD,I-1,POBLACION GENERAL,8:00 - 17:00,-13.7489996,-73.5101089
94,95.000000000000000,APURIMAC,ANDAHUAYLAS,HUANCARAY,MOLLEPATA,ESTABLECIMIENTO DE SALUD SIN INTERNAMIENTO,PUESTOS DE SALUD O POSTAS DE SALUD,I-1,POBLACION GENERAL,8:00 - 18:00,-13.7334003,-73.5525436
95,96.000000000000000,APURIMAC,ANDAHUAYLAS,HUAYANA,HUAYANA,ESTABLECIMIENTO DE SALUD SIN INTERNAMIENTO,PUESTOS DE SALUD O POSTAS DE SALUD,I-2,POBLACION GENERAL,08:00 HORAS,-14.0511999,-73.6090698
96,97.000000000000000,APURIMAC,ANDAHUAYLAS,HUAYANA,CHECCCHEPAMPA,ESTABLECIMIENTO DE SALUD SIN INTERNAMIENTO,PUESTOS DE SALUD O POSTAS DE SALUD,I-1,POBLACION GENERAL,24 HORAS,-13.9770002,-73.5316238
97,98.000000000000000,APURIMAC,ANDAHUAYLAS,KISHUARA,KISHUARA,ESTABLECIMIENTO DE SALUD CON INTERNAMIENTO,CENTROS DE SALUD CON CAMAS DE INTERNAMIENTO,I-4,POBLACION GENERAL,24 HORAS,-13.6906004,-73.1200409
98,99.000000000000000,APURIMAC,ANDAHUAYLAS,KISHUARA,QUILLABAMBA,ESTABLECIMIENTO DE SALUD SIN INTERNAMIENTO,PUESTOS DE SALUD O POSTAS DE SALUD,I-2,POBLACION GENERAL,24 HORAS,-13.6295004,-73.1994705
99,100.000000000000000,APURIMAC,ANDAHUAYLAS,KISHUARA,MATAPUQUIO,ESTABLECIMIENTO DE SALUD SIN INTERNAMIENTO,CENTROS DE SALUD O CENTROS MEDICOS,I-3,POBLACION GENERAL,24 HORAS,-13.6073999,-73.1611252
100,101.000000000000000,APURIMAC,ANDAHUAYLAS,KISHUARA,SOTCCOMAYO,ESTABLECIMIENTO DE SALUD SIN INTERNAMIENTO,PUESTOS DE SALUD O POSTAS DE SALUD,I-1,POBLACION GENERAL,24 HORAS,-13.6309004,-73.1710587
101,102.000000000000000,APURIMAC,ANDAHUAYLAS,KISHUARA,TINTAY,ESTABLECIMIENTO DE SALUD SIN INTERNAMIENTO,PUESTOS DE SALUD O POSTAS DE SALUD,I-1,POBLACION GENERAL,12 HORAS,-13.6773005,-73.1627960
102,103.000000000000000,APURIMAC,ANDAHUAYLAS,KISHUARA,COLPA,ESTABLECIMIENTO DE SALUD SIN INTERNAMIENTO,PUESTOS DE SALUD O POSTAS DE SALUD,I-1,POBLACION GENERAL,12 HORAS,-13.5633001,-73.1590424
103,104.000000000000000,APURIMAC,ANDAHUAYLAS,KISHUARA,CAVIRA,ESTABLECIMIENTO DE SALUD SIN INTERNAMIENTO,PUESTOS DE SALUD O POSTAS DE SALUD,I-2,POBLACION GENERAL,12 HORAS,-13.6963997,-73.1514664
104,105.000000000000000,APURIMAC,ANDAHUAYLAS,PACOBAMBA,CCALLASPUQUIO,ESTABLECIMIENTO DE SALUD SIN INTERNAMIENTO,PUESTOS DE SALUD O POSTAS DE SALUD,I-2,PUBLICO EN GENERAL,12 HORAS,-13.6229000,-73.1281586
105,106.000000000000000,APURIMAC,ANDAHUAYLAS,PACOBAMBA,TACMARA,ESTABLECIMIENTO DE SALUD SIN INTERNAMIENTO,PUESTOS DE SALUD O POSTAS DE SALUD,I-1,PUBLICO EN GENERAL,12 HORAS,-13.4872999,-73.1977005
106,107.000000000000000,APURIMAC,ANDAHUAYLAS,PACOBAMBA,HUAMBO,ESTABLECIMIENTO DE SALUD SIN INTERNAMIENTO,PUESTOS DE SALUD O POSTAS DE SALUD,I-1,PUBLICO EN GENERAL,12 HORAS,-13.5811996,-73.0903168
107,108.000000000000000,APURIMAC,ANDAHUAYLAS,PACOBAMBA,HUIRONAY,ESTABLECIMIENTO DE SALUD SIN INTERNAMIENTO,PUESTOS DE SALUD O POSTAS DE SALUD,I-1,PUBLICO EN GENERAL,12 HORAS,-13.5876999,-73.1192093
108,109.000000000000000,APURIMAC,ANDAHUAYLAS,PACOBAMBA,HUASCATAY,ESTABLECIMIENTO DE SALUD SIN INTERNAMIENTO,PUESTOS DE SALUD O POSTAS DE SALUD,I-1,PUBLICO EN GENERAL,12 HORAS,-13.5022001,-73.1851807
109,110.000000000000000,APURIMAC,ANDAHUAYLAS,PACOBAMBA,CCERABAMBA,ESTABLECIMIENTO DE SALUD SIN INTERNAMIENTO,PUESTOS DE SALUD O POSTAS DE SALUD,I-1,PUBLICO EN GENERAL,12 HORAS,-13.5642004,-73.1123199
110,111.000000000000000,APURIMAC,ANDAHUAYLAS,PACOBAMBA,PACOBAMBA,ESTABLECIMIENTO DE SALUD SIN INTERNAMIENTO,CENTROS DE SALUD O CENTROS MEDICOS,I-3,PUBLICO EN GENERAL,8:00-20:00,-13.6155996,-73.0857849
111,112.000000000000000,APURIMAC,ANDAHUAYLAS,PACUCHA,ARGAMA,ESTABLECIMIENTO DE SALUD SIN INTERNAMIENTO,PUESTOS DE SALUD O POSTAS DE SALUD,I-2,POBLACION GENERAL,24 HORAS,-13.6281996,-73.2545700
112,113.000000000000000,APURIMAC,ANDAHUAYLAS,PACUCHA,CHURRUBAMBA,ESTABLECIMIENTO DE SALUD SIN INTERNAMIENTO,PUESTOS DE SALUD O POSTAS DE SALUD,I-2,POBLACION EN GENERAL,12 HORAS,-13.6082001,-73.3676910
113,114.000000000000000,APURIMAC,ANDAHUAYLAS,PACUCHA,COTAHUACHO,ESTABLECIMIENTO DE SALUD SIN INTERNAMIENTO,PUESTOS DE SALUD O POSTAS DE SALUD,I-2,POBLACION GENERAL,12 HORAS,-13.5908003,-73.2658997
114,115.000000000000000,APURIMAC,ANDAHUAYLAS,PACUCHA,PUCULLOCCOCHA,ESTABLECIMIENTO DE SALUD SIN INTERNAMIENTO,PUESTOS DE SALUD O POSTAS DE SALUD,I-1,POBLACION GENERAL,12 HORAS,-13.5804996,-73.3673782
115,116.000000000000000,APURIMAC,ANDAHUAYLAS,PACUCHA,PACUCHA,ESTABLECIMIENTO DE SALUD CON INTERNAMIENTO,CENTROS DE SALUD CON CAMAS DE INTERNAMIENTO,I-4,POBLACION GENERAL,24 HORAS,-13.6091003,-73.3409348
116,117.000000000000000,APURIMAC,ANDAHUAYLAS,PACUCHA,LAGUNA,ESTABLECIMIENTO DE SALUD SIN INTERNAMIENTO,PUESTOS DE SALUD O POSTAS DE SALUD,I-1,POBLACION GENERAL,08:00 HORAS,-13.6145000,-73.2942581
117,118.000000000000000,APURIMAC,ANDAHUAYLAS,PAMPACHIRI,CHILLIHUA,ESTABLECIMIENTO DE SALUD SIN INTERNAMIENTO,PUESTOS DE SALUD O POSTAS DE SALUD,I-1,POBLACION GENERAL,08 HORAS,-14.3950005,-73.4849472
118,119.000000000000000,APURIMAC,ANDAHUAYLAS,PAMPACHIRI,LLANCAMA,ESTABLECIMIENTO DE SALUD SIN INTERNAMIENTO,PUESTOS DE SALUD O POSTAS DE SALUD,I-1,POBLACION GENERAL,08 HORAS,-14.2966995,-73.4663620
119,120.000000000000000,APURIMAC,ANDAHUAYLAS,PAMPACHIRI,PAMPACHIRI,ESTABLECIMIENTO DE SALUD CON INTERNAMIENTO,CENTROS DE SALUD CON CAMAS DE INTERNAMIENTO,I-4,POBLACION GENERAL,24 HORAS,-14.1840000,-73.5469208
120,121.000000000000000,APURIMAC,ANDAHUAYLAS,POMACOCHA,POMACOCHA,ESTABLECIMIENTO DE SALUD SIN INTERNAMIENTO,PUESTOS DE SALUD O POSTAS DE SALUD,I-2,POBLACION GENERAL,08:00 HORAS,-14.0837002,-73.5910721
121,122.000000000000000,APURIMAC,ANDAHUAYLAS,SAN ANTONIO DE CACHI,SAN JUAN DE CULA,ESTABLECIMIENTO DE SALUD SIN INTERNAMIENTO,PUESTOS DE SALUD O POSTAS DE SALUD,I-1,POBLACION GENERAL,12 HORAS,-13.7929001,-73.6662979
122,123.000000000000000,APURIMAC,ANDAHUAYLAS,SAN ANTONIO DE CACHI,SAN ANTONIO DE CACHI,ESTABLECIMIENTO DE SALUD SIN INTERNAMIENTO,PUESTOS DE SALUD O POSTAS DE SALUD,I-2,POBLACION GENERAL,24 HORAS,-13.7729998,-73.6026077
123,124.000000000000000,APURIMAC,ANDAHUAYLAS,SAN ANTONIO DE CACHI,CHULLIZANA,ESTABLECIMIENTO DE SALUD SIN INTERNAMIENTO,PUESTOS DE SALUD O POSTAS DE SALUD,I-2,POBLACION GENERAL,12 HORAS,-13.8137999,-73.6258698
124,125.000000000000000,APURIMAC,ANDAHUAYLAS,SAN ANTONIO DE CACHI,TANQUIYAURECC,ESTABLECIMIENTO DE SALUD SIN INTERNAMIENTO,PUESTOS DE SALUD O POSTAS DE SALUD,I-1,POBLACION GENERAL,12 HORAS,-13.8458996,-73.6838684
125,126.000000000000000,APURIMAC,ANDAHUAYLAS,SAN JERONIMO,CUPISA,ESTABLECIMIENTO DE SALUD SIN INTERNAMIENTO,PUESTOS DE SALUD O POSTAS DE SALUD,I-1,POBLACION GENERAL,12 HORAS,-13.6829004,-73.2858200
126,127.000000000000000,APURIMAC,ANDAHUAYLAS,SAN JERONIMO,CHAMPACCOCHA,ESTABLECIMIENTO DE SALUD SIN INTERNAMIENTO,PUESTOS DE SALUD O POSTAS DE SALUD,I-2,POBLACION GENERAL,12 HORAS,-13.6564999,-73.3024521
127,128.000000000000000,APURIMAC,ANDAHUAYLAS,SAN JERONIMO,CHOCCECANCHA,ESTABLECIMIENTO DE SALUD SIN INTERNAMIENTO,PUESTOS DE SALUD O POSTAS DE SALUD,I-1,POBLACION GENERAL,12 HORAS,-13.6841002,-73.2628326
128,129.000000000000000,APURIMAC,ANDAHUAYLAS,SAN JERONIMO,ANCATIRA,ESTABLECIMIENTO DE SALUD SIN INTERNAMIENTO,PUESTOS DE SALUD O POSTAS DE SALUD,I-2,POBLACION GENEREAL,12 HORAS,-13.6709995,-73.2875214
129,130.000000000000000,APURIMAC,ANDAHUAYLAS,SAN JERONIMO,SAN JERONIMO,ESTABLECIMIENTO DE SALUD CON INTERNAMIENTO,CENTROS DE SALUD CON CAMAS DE INTERNAMIENTO,I-4,POBLACION GENERAL,24 HORAS,-13.6524000,-73.3630600
130,131.000000000000000,APURIMAC,ANDAHUAYLAS,SAN JERONIMO,CHULLCUISA,ESTABLECIMIENTO DE SALUD SIN INTERNAMIENTO,PUESTOS DE SALUD O POSTAS DE SALUD,I-1,POBLACION GENERAL,12 HORAS,-13.6689997,-73.2620697
131,132.000000000000000,APURIMAC,ANDAHUAYLAS,SAN JERONIMO,POLTOCCSA,ESTABLECIMIENTO DE SALUD SIN INTERNAMIENTO,PUESTOS DE SALUD O POSTAS DE SALUD,I-1,POBLACION GENERAL,12 HORAS,-13.6525002,-73.3341217
132,133.000000000000000,APURIMAC,ANDAHUAYLAS,SAN JERONIMO,LLIUPAPUQUIO,ESTABLECIMIENTO DE SALUD SIN INTERNAMIENTO,CENTROS DE SALUD O CENTROS MEDICOS,I-3,POBLACION GENERAL,12 HORAS,-13.6704998,-73.3051605
133,134.000000000000000,APURIMAC,ANDAHUAYLAS,SAN MIGUEL DE CHACCRAMPA,SAN JUAN PAMPA,ESTABLECIMIENTO DE SALUD SIN INTERNAMIENTO,PUESTOS DE SALUD O POSTAS DE SALUD,I-1,POBLACION GENERAL,12 HORAS,-13.9672003,-73.5898438
134,135.000000000000000,APURIMAC,ANDAHUAYLAS,SAN MIGUEL DE CHACCRAMPA,IGLESIA PATA,ESTABLECIMIENTO DE SALUD SIN INTERNAMIENTO,PUESTOS DE SALUD O POSTAS DE SALUD,I-1,POBLACION GENERAL,8:00 - 17:00,-13.9988003,-73.6019287
135,136.000000000000000,APURIMAC,ANDAHUAYLAS,SAN MIGUEL DE CHACCRAMPA,CHACCRAMPA,ESTABLECIMIENTO DE SALUD SIN INTERNAMIENTO,PUESTOS DE SALUD O POSTAS DE SALUD,I-2,POBLACION GENERAL,12 HORAS,-13.9624004,-73.6079636
136,137.000000000000000,APURIMAC,ANDAHUAYLAS,SAN MIGUEL DE CHACCRAMPA,SANTIAGO DE YANACULLO,ESTABLECIMIENTO DE SALUD SIN INTERNAMIENTO,PUESTOS DE SALUD O POSTAS DE SALUD,I-1,POBLACION GENERAL,12 HORAS,-13.9387999,-73.5966187
137,138.000000000000000,APURIMAC,ANDAHUAYLAS,SANTA MARIA DE CHICMO,MOYABAMBA BAJA,ESTABLECIMIENTO DE SALUD SIN INTERNAMIENTO,PUESTOS DE SALUD O POSTAS DE SALUD,I-1,POBLACION GENERAL,12 HORAS,-13.6510000,-73.5188141
138,139.000000000000000,APURIMAC,ANDAHUAYLAS,SANTA MARIA DE CHICMO,CCANTUPATA,ESTABLECIMIENTO DE SALUD SIN INTERNAMIENTO,PUESTOS DE SALUD O POSTAS DE SALUD,I-1,POBLACION GENERAL,12 HORAS,-13.6987000,-73.5759583
139,140.000000000000000,APURIMAC,ANDAHUAYLAS,SANTA MARIA DE CHICMO,CHICMO,ESTABLECIMIENTO DE SALUD CON INTERNAMIENTO,CENTROS DE SALUD CON CAMAS DE INTERNAMIENTO,I-4,POBLACION GENERAL,24 HORAS,-13.6573000,-73.4941025
140,141.000000000000000,APURIMAC,ANDAHUAYLAS,SANTA MARIA DE CHICMO,CASCABAMBA,ESTABLECIMIENTO DE SALUD SIN INTERNAMIENTO,CENTROS DE SALUD O CENTROS MEDICOS,I-3,POBLACION GENERAL,24 HORAS,-13.7013998,-73.5892487
141,142.000000000000000,APURIMAC,ANDAHUAYLAS,SANTA MARIA DE CHICMO,REBELDE HUAYRANA,ESTABLECIMIENTO DE SALUD SIN INTERNAMIENTO,PUESTOS DE SALUD O POSTAS DE SALUD,I-1,POBLACION GENERAL,24 HORAS,-13.6971998,-73.6033173
142,143.000000000000000,APURIMAC,ANDAHUAYLAS,SANTA MARIA DE CHICMO,NUEVA ESPERANZA,ESTABLECIMIENTO DE SALUD SIN INTERNAMIENTO,CENTROS DE SALUD O CENTROS MEDICOS,I-3,POBLACION GENERAL,24 HORAS,-13.6521997,-73.5302429
143,144.000000000000000,APURIMAC,ANDAHUAYLAS,SANTA MARIA DE CHICMO,TARAMBA,ESTABLECIMIENTO DE SALUD SIN INTERNAMIENTO,PUESTOS DE SALUD O POSTAS DE SALUD,I-2,POBLACION GENERAL,24 HORAS,-13.6478004,-73.4992523
144,145.000000000000000,APURIMAC,ANDAHUAYLAS,SANTA MARIA DE CHICMO,LAMAY,ESTABLECIMIENTO DE SALUD SIN INTERNAMIENTO,PUESTOS DE SALUD O POSTAS DE SALUD,I-1,POBLACION GENERAL,12 HORAS,-13.7110004,-73.5807114
145,146.000000000000000,APURIMAC,ANDAHUAYLAS,SANTA MARIA DE CHICMO,CCANTUPATA,ESTABLECIMIENTO DE SALUD SIN INTERNAMIENTO,PUESTOS DE SALUD O POSTAS DE SALUD,I-1,POBLACION GENERAL,12 HORAS,-13.6987000,-73.5759583
146,147.000000000000000,APURIMAC,ANDAHUAYLAS,TALAVERA,OSCCOLLOPAMPA,ESTABLECIMIENTO DE SALUD SIN INTERNAMIENTO,PUESTOS DE SALUD O POSTAS DE SALUD,I-1,POBLACION GENERAL,12 HORAS,-13.6794996,-73.4464493
147,148.000000000000000,APURIMAC,ANDAHUAYLAS,TALAVERA,MULACANCHA,ESTABLECIMIENTO DE SALUD SIN INTERNAMIENTO,PUESTOS DE SALUD O POSTAS DE SALUD,I-1,POBLACION GENERAL,10 HORAS,-13.6373997,-73.4748383
148,149.000000000000000,APURIMAC,ANDAHUAYLAS,TALAVERA,CCACCACHA,ESTABLECIMIENTO DE SALUD SIN INTERNAMIENTO,PUESTOS DE SALUD O POSTAS DE SALUD,I-1,POBLACION GENERAL,10 HORAS,-13.6793003,-73.4557724
149,150.000000000000000,APURIMAC,ANDAHUAYLAS,TALAVERA,CCACCACHA,ESTABLECIMIENTO DE SALUD SIN INTERNAMIENTO,PUESTOS DE SALUD O POSTAS DE SALUD,I-1,POBLACION GENERAL,10 HORAS,-13.6793003,-73.4557724
150,151.000000000000000,APURIMAC,ANDAHUAYLAS,TALAVERA,LLANTUYHUANCA,ESTABLECIMIENTO DE SALUD SIN INTERNAMIENTO,PUESTOS DE SALUD O POSTAS DE SALUD,I-2,POBLACION GENERAL,8:00 - 18:00,-13.6419001,-73.4173660
151,152.000000000000000,APURIMAC,ANDAHUAYLAS,TALAVERA,PAMPAMARCA,ESTABLECIMIENTO DE SALUD SIN INTERNAMIENTO,PUESTOS DE SALUD O POSTAS DE SALUD,I-2,POBLACION GENERAL,10 HORAS,-13.7060003,-73.4606857
152,153.000000000000000,APURIMAC,ANDAHUAYLAS,TALAVERA,LUIS PATA,ESTABLECIMIENTO DE SALUD SIN INTERNAMIENTO,PUESTOS DE SALUD O POSTAS DE SALUD,I-1,POBLACION GENERAL,10 HORAS,-13.7048998,-73.4441223
153,154.000000000000000,APURIMAC,ANDAHUAYLAS,TALAVERA,UCHUHUANCARAY,ESTABLECIMIENTO DE SALUD SIN INTERNAMIENTO,PUESTOS DE SALUD O POSTAS DE SALUD,I-1,POBLACION GENERAL,10 HORAS,-13.6028004,-73.4457855
154,155.000000000000000,APURIMAC,ANDAHUAYLAS,TALAVERA,TALAVERA,ESTABLECIMIENTO DE SALUD CON INTERNAMIENTO,CENTROS DE SALUD CON CAMAS DE INTERNAMIENTO,I-4,POBLACION GENERAL,24 HORAS,-13.6591997,-73.4299774
155,156.000000000000000,APURIMAC,ANDAHUAYLAS,TUMAY HUARACA,UMAMARCA,ESTABLECIMIENTO DE SALUD SIN INTERNAMIENTO,CENTROS DE SALUD O CENTROS MEDICOS,I-3,POBLACION GENERAL,08:00 HORAS,-14.0511999,-73.5662537
156,157.000000000000000,APURIMAC,ANDAHUAYLAS,TUMAY HUARACA,VILLA SANTA ROSA,ESTABLECIMIENTO DE SALUD SIN INTERNAMIENTO,PUESTOS DE SALUD O POSTAS DE SALUD,I-1,POBLACION GENERAL,08:00 HORAS,-14.0298996,-73.4659882
157,158.000000000000000,APURIMAC,ANDAHUAYLAS,TUMAY HUARACA,CCOCHAPUCRO,ESTABLECIMIENTO DE SALUD SIN INTERNAMIENTO,PUESTOS DE SALUD O POSTAS DE SALUD,I-1,POBLACION EN GENERAL,24 HORAS,-13.9816999,-73.5162506
158,159.000000000000000,APURIMAC,ANDAHUAYLAS,TURPO,TORACCA,ESTABLECIMIENTO DE SALUD SIN INTERNAMIENTO,PUESTOS DE SALUD O POSTAS DE SALUD,I-1,POBLACION GENERAL,8:00 - 17:00,-13.7830000,-73.5139160
159,160.000000000000000,APURIMAC,ANDAHUAYLAS,TURPO,PALLACCOCHA,ESTABLECIMIENTO DE SALUD SIN INTERNAMIENTO,PUESTOS DE SALUD O POSTAS DE SALUD,I-1,POBLACION GENERAL,12 HORAS,-13.7679996,-73.4994965
160,161.000000000000000,APURIMAC,ANDAHUAYLAS,TURPO,SAN JUAN DE OCCOLLO,ESTABLECIMIENTO DE SALUD SIN INTERNAMIENTO,PUESTOS DE SALUD O POSTAS DE SALUD,I-1,POBLACION GENERAL,24 HORAS,-13.7925997,-73.4091263
161,162.000000000000000,APURIMAC,ANDAHUAYLAS,TURPO,YANACCMA,ESTABLECIMIENTO DE SALUD SIN INTERNAMIENTO,PUESTOS DE SALUD O POSTAS DE SALUD,I-1,POBLACION GENERAL,24 HORAS,-13.7700996,-73.4727631
162,163.000000000000000,APURIMAC,ANDAHUAYLAS,TURPO,TAYPICHA,ESTABLECIMIENTO DE SALUD SIN INTERNAMIENTO,PUESTOS DE SALUD O POSTAS DE SALUD,I-1,POBLACION GENERAL,12 HORAS,-13.7643003,-73.4432602
163,164.000000000000000,APURIMAC,ANDAHUAYLAS,TURPO,TURPO,ESTABLECIMIENTO DE SALUD SIN INTERNAMIENTO,CENTROS DE SALUD O CENTROS MEDICOS,I-3,POBLACION GENERAL,12 HORAS,-13.7853003,-73.4748611
164,165.000000000000000,APURIMAC,ANDAHUAYLAS,TURPO,BELEN DE ANTA,ESTABLECIMIENTO DE SALUD SIN INTERNAMIENTO,PUESTOS DE SALUD O POSTAS DE SALUD,I-2,POBLACION GENERAL,12 HORAS,-13.7904997,-73.4935913
165,166.000000000000000,APURIMAC,ANDAHUAYLAS,KAQUIABAMBA,KAQUIABAMBA,ESTABLECIMIENTO DE SALUD SIN INTERNAMIENTO,CENTROS DE SALUD O CENTROS MEDICOS,I-3,POBLACION GENERAL,24 HORAS,-13.5330000,-73.2878799
166,167.000000000000000,APURIMAC,ANDAHUAYLAS,KAQUIABAMBA,PULLURI,ESTABLECIMIENTO DE SALUD SIN INTERNAMIENTO,PUESTOS DE SALUD O POSTAS DE SALUD,I-1,POBLACION GENERAL,12 HORAS,-13.5475998,-73.2852783
167,168.000000000000000,APURIMAC,ANDAHUAYLAS,JOSE MARIA ARGUEDAS,HUANCABAMBA,ESTABLECIMIENTO DE SALUD CON INTERNAMIENTO,CENTROS DE SALUD CON CAMAS DE INTERNAMIENTO,I-4,POBLACION GENERAL,24 HORAS,-13.7349997,-73.3483276
168,169.000000000000000,APURIMAC,ANDAHUAYLAS,JOSE MARIA ARGUEDAS,SACCLAYA,ESTABLECIMIENTO DE SALUD SIN INTERNAMIENTO,PUESTOS DE SALUD O POSTAS DE SALUD,I-2,POBLACION GENERAL,24 HORAS,-13.7674999,-73.3697891
169,170.000000000000000,APURIMAC,ANTABAMBA,ANTABAMBA,CURANCO,ESTABLECIMIENTO DE SALUD SIN INTERNAMIENTO,PUESTOS DE SALUD O POSTAS DE SALUD,I-1,POBLACION EN GENERAL,8:00-19:00,-14.4183998,-72.7677994
170,171.000000000000000,APURIMAC,ANTABAMBA,ANTABAMBA,CHUÑOHUACHO,ESTABLECIMIENTO DE SALUD SIN INTERNAMIENTO,PUESTOS DE SALUD O POSTAS DE SALUD,I-2,PUBLICO EN GENERAL,12 HORAS,-14.4077997,-72.8192673
171,172.000000000000000,APURIMAC,ANTABAMBA,ANTABAMBA,CENTRO DE SALUD ANTABAMBA,ESTABLECIMIENTO DE SALUD CON INTERNAMIENTO,CENTROS DE SALUD CON CAMAS DE INTERNAMIENTO,I-4,PUBLICO EN GENERAL,12 HORAS,-14.3654003,-72.8784256
172,173.000000000000000,APURIMAC,ANTABAMBA,EL ORO,AYAHUAY,ESTABLECIMIENTO DE SALUD SIN INTERNAMIENTO,PUESTOS DE SALUD O POSTAS DE SALUD,I-2,PUBLICO EN GENERAL,12 HORAS,-14.2074003,-73.0594101
173,174.000000000000000,APURIMAC,ANTABAMBA,HUAQUIRCA,MUTKANI,ESTABLECIMIENTO DE SALUD SIN INTERNAMIENTO,PUESTOS DE SALUD O POSTAS DE SALUD,I-1,POBLACION GENERAL,24 HORAS,-14.3290997,-72.8040695
174,175.000000000000000,APURIMAC,ANTABAMBA,HUAQUIRCA,MATARA,ESTABLECIMIENTO DE SALUD SIN INTERNAMIENTO,PUESTOS DE SALUD O POSTAS DE SALUD,I-1,PUBLICO EN GENERAL,08:00-20:00,-14.3507004,-72.9217224
175,176.000000000000000,APURIMAC,ANTABAMBA,HUAQUIRCA,LLANACCOLLPA,ESTABLECIMIENTO DE SALUD SIN INTERNAMIENTO,PUESTOS DE SALUD O POSTAS DE SALUD,I-1,POBLACION EN GENERAL,8:00-24:00,-14.3351002,-72.7195206
176,177.000000000000000,APURIMAC,ANTABAMBA,HUAQUIRCA,HUAQUIRCA,ESTABLECIMIENTO DE SALUD SIN INTERNAMIENTO,PUESTOS DE SALUD O POSTAS DE SALUD,I-2,PUBLICO EN GENERAL,12 HORAS,-14.3392000,-72.8940201
177,178.000000000000000,APURIMAC,ANTABAMBA,JUAN ESPINOZA MEDRANO,MOLLEBAMBA,ESTABLECIMIENTO DE SALUD SIN INTERNAMIENTO,CENTROS DE SALUD O CENTROS MEDICOS,I-3,PUBLICO EN GENERAL,12 HORAS,-14.4286003,-72.9154892
178,179.000000000000000,APURIMAC,ANTABAMBA,JUAN ESPINOZA MEDRANO,SILCO,ESTABLECIMIENTO DE SALUD SIN INTERNAMIENTO,PUESTOS DE SALUD O POSTAS DE SALUD,I-1,PUBLICO EN GENERAL,12 HORAS,-14.4168997,-72.9321899
179,180.000000000000000,APURIMAC,ANTABAMBA,JUAN ESPINOZA MEDRANO,SANTA ROSA DE CALCAUSO,ESTABLECIMIENTO DE SALUD SIN INTERNAMIENTO,PUESTOS DE SALUD O POSTAS DE SALUD,I-1,POBLACION EN GENERAL,8:00-19:00,-14.6061001,-72.9922104
180,181.000000000000000,APURIMAC,ANTABAMBA,JUAN ESPINOZA MEDRANO,VITO,ESTABLECIMIENTO DE SALUD SIN INTERNAMIENTO,PUESTOS DE SALUD O POSTAS DE SALUD,I-1,PUBLICO EN GENERAL,12 HORAS,-14.3898001,-72.9436340
181,182.000000000000000,APURIMAC,ANTABAMBA,JUAN ESPINOZA MEDRANO,CALCAUSO,ESTABLECIMIENTO DE SALUD SIN INTERNAMIENTO,PUESTOS DE SALUD O POSTAS DE SALUD,I-2,PUBLICO EN GENERAL,12 HORAS,-14.4511995,-72.9118958
182,183.000000000000000,APURIMAC,ANTABAMBA,OROPESA,KILCATA,ESTABLECIMIENTO DE SALUD SIN INTERNAMIENTO,PUESTOS DE SALUD O POSTAS DE SALUD,I-1,POBLACION EN GENERAL,8:00-20:00,-14.4125004,-72.5970917
183,184.000000000000000,APURIMAC,ANTABAMBA,OROPESA,TOTORA OROPESA,ESTABLECIMIENTO DE SALUD SIN INTERNAMIENTO,CENTROS DE SALUD O CENTROS MEDICOS,I-3,PUBLICO EN GENERAL,12 HORAS,-14.2628002,-72.5590286
184,185.000000000000000,APURIMAC,ANTABAMBA,OROPESA,YUMIRI,ESTABLECIMIENTO DE SALUD SIN INTERNAMIENTO,PUESTOS DE SALUD O POSTAS DE SALUD,I-1,PUBLICO EN GENERAL,12 HORAS,-14.5732002,-72.5954437
185,186.000000000000000,APURIMAC,ANTABAMBA,OROPESA,SONCCOCCOCHA,ESTABLECIMIENTO DE SALUD SIN INTERNAMIENTO,PUESTOS DE SALUD O POSTAS DE SALUD,I-1,POBLACION EN GENERAL,8:00-18:00,-14.4052000,-72.5237274
186,187.000000000000000,APURIMAC,ANTABAMBA,OROPESA,HUACULLO,ESTABLECIMIENTO DE SALUD SIN INTERNAMIENTO,PUESTOS DE SALUD O POSTAS DE SALUD,I-1,PUBLICO EN GENERAL,12 HORAS,-14.6536999,-72.5732422
187,188.000000000000000,APURIMAC,ANTABAMBA,PACHACONAS,HUANCARAY,ESTABLECIMIENTO DE SALUD SIN INTERNAMIENTO,PUESTOS DE SALUD O POSTAS DE SALUD,I-1,PUBLICO EN GENERAL,12 HORAS,-14.2510996,-73.0281601
188,189.000000000000000,APURIMAC,ANTABAMBA,PACHACONAS,PACHACONAS,ESTABLECIMIENTO DE SALUD SIN INTERNAMIENTO,CENTROS DE SALUD O CENTROS MEDICOS,I-3,PUBLICO EN GENERAL,12 HORAS,-14.2222004,-73.0167923
189,190.000000000000000,APURIMAC,ANTABAMBA,PACHACONAS,PALCAYÑO,ESTABLECIMIENTO DE SALUD SIN INTERNAMIENTO,PUESTOS DE SALUD O POSTAS DE SALUD,I-1,PUBLICO EN GENERAL,12 HORAS,-14.2212000,-72.9700623
190,191.000000000000000,APURIMAC,ANTABAMBA,SABAINO,SABAYNO,ESTABLECIMIENTO DE SALUD SIN INTERNAMIENTO,PUESTOS DE SALUD O POSTAS DE SALUD,I-2,PUBLICO EN GENERAL,12 HORAS,-14.3135996,-72.9453506
191,192.000000000000000,APURIMAC,ANTABAMBA,SABAINO,ANTILLA,ESTABLECIMIENTO DE SALUD SIN INTERNAMIENTO,PUESTOS DE SALUD O POSTAS DE SALUD,I-1,PUBLICO EN GENERAL,12 HORAS,-14.3275003,-72.9663162
192,193.000000000000000,APURIMAC,AYMARAES,CHALHUANCA,CHALHUANCA,ESTABLECIMIENTO DE SALUD CON INTERNAMIENTO,CENTROS DE SALUD CON CAMAS DE INTERNAMIENTO,I-4,PUBLICO EN GENERAL,24 HORAS,-14.2941999,-73.2445145
193,194.000000000000000,APURIMAC,AYMARAES,CHALHUANCA,PINCAHUACHO,ESTABLECIMIENTO DE SALUD SIN INTERNAMIENTO,PUESTOS DE SALUD O POSTAS DE SALUD,I-1,POBLACION EN GENERAL,12 HORAS,-14.2754002,-73.2935333
194,195.000000000000000,APURIMAC,AYMARAES,CHALHUANCA,MUTCA,ESTABLECIMIENTO DE SALUD SIN INTERNAMIENTO,PUESTOS DE SALUD O POSTAS DE SALUD,I-1,POBLACION EN GENERAL,12 HORAS,-14.2165003,-73.3080673
195,196.000000000000000,APURIMAC,AYMARAES,CAPAYA,CAPAYA,ESTABLECIMIENTO DE SALUD SIN INTERNAMIENTO,PUESTOS DE SALUD O POSTAS DE SALUD,I-1,PUBLICO EN GENERAL,12 HORAS,-14.1177998,-73.3205109
196,197.000000000000000,APURIMAC,AYMARAES,CAPAYA,MOSECCA,ESTABLECIMIENTO DE SALUD SIN INTERNAMIENTO,PUESTOS DE SALUD O POSTAS DE SALUD,I-1,POBLACION EN GENERAL,12 HORAS,-14.1307001,-73.3158722
197,198.000000000000000,APURIMAC,AYMARAES,CAPAYA,CHACAPUENTE,ESTABLECIMIENTO DE SALUD SIN INTERNAMIENTO,PUESTOS DE SALUD O POSTAS DE SALUD,I-2,PUBLICO EN GENERAL,12 HORAS,-14.1417999,-73.3032150
198,199.000000000000000,APURIMAC,AYMARAES,CARAYBAMBA,CARAYBAMBA,ESTABLECIMIENTO DE SALUD SIN INTERNAMIENTO,PUESTOS DE SALUD O POSTAS DE SALUD,I-2,PUBLICO EN GENERAL,12 HORAS,-14.3772001,-73.1611481
199,200.000000000000000,APURIMAC,AYMARAES,CARAYBAMBA,COLCA,ESTABLECIMIENTO DE SALUD SIN INTERNAMIENTO,PUESTOS DE SALUD O POSTAS DE SALUD,I-1,PUBLICO EN GENERAL,12 HORAS,-14.3909998,-73.1784897
200,201.000000000000000,APURIMAC,AYMARAES,CHAPIMARCA,PAMPALLACTA,ESTABLECIMIENTO DE SALUD SIN INTERNAMIENTO,PUESTOS DE SALUD O POSTAS DE SALUD,I-1,PÚBLICO EN GENERAL,12 HORAS,-14.0030003,-73.0927200
201,202.000000000000000,APURIMAC,AYMARAES,CHAPIMARCA,CHAPIMARCA,ESTABLECIMIENTO DE SALUD SIN INTERNAMIENTO,PUESTOS DE SALUD O POSTAS DE SALUD,I-2,PUBLICO EN GENERAL,8:00-20:00,-13.9748001,-73.0645676
202,203.000000000000000,APURIMAC,AYMARAES,CHAPIMARCA,ANCOBAMBA,ESTABLECIMIENTO DE SALUD SIN INTERNAMIENTO,PUESTOS DE SALUD O POSTAS DE SALUD,I-2,PUBLICO EN GENERAL,8:00-20:00,-14.0340004,-73.0997467
203,204.000000000000000,APURIMAC,AYMARAES,CHAPIMARCA,SANTA ROSA,ESTABLECIMIENTO DE SALUD CON INTERNAMIENTO,CENTROS DE SALUD CON CAMAS DE INTERNAMIENTO,I-4,PUBLICO EN GENERAL,24 HORAS,-13.9910002,-73.1717148
204,205.000000000000000,APURIMAC,AYMARAES,COTARUSE,COTARUSE,ESTABLECIMIENTO DE SALUD SIN INTERNAMIENTO,CENTROS DE SALUD O CENTROS MEDICOS,I-3,PUBLICO EN GENERAL,24 HORAS,-14.4173002,-73.2056732
205,206.000000000000000,APURIMAC,AYMARAES,COTARUSE,KILCACCASA,ESTABLECIMIENTO DE SALUD SIN INTERNAMIENTO,PUESTOS DE SALUD O POSTAS DE SALUD,I-1,PUBLICO EN GENERAL,12 HORAS,-14.5501003,-73.3607254
206,207.000000000000000,APURIMAC,AYMARAES,COTARUSE,PISQUICOCHA,ESTABLECIMIENTO DE SALUD SIN INTERNAMIENTO,PUESTOS DE SALUD O POSTAS DE SALUD,I-2,PUBLICO EN GENERAL,12 HORAS,-14.7666998,-73.4537735
207,208.000000000000000,APURIMAC,AYMARAES,COTARUSE,PAMPAMARCA,ESTABLECIMIENTO DE SALUD SIN INTERNAMIENTO,PUESTOS DE SALUD O POSTAS DE SALUD,I-1,PUBLICO EN GENERAL,12 HORAS,-14.4277000,-73.2069092
208,209.000000000000000,APURIMAC,AYMARAES,COTARUSE,TOTORA DE AYMARAES,ESTABLECIMIENTO DE SALUD SIN INTERNAMIENTO,PUESTOS DE SALUD O POSTAS DE SALUD,I-1,PUBLICO EN GENERAL,12 HORAS,-14.7544003,-73.5588837
209,210.000000000000000,APURIMAC,AYMARAES,COTARUSE,CCELLOPAMPA,ESTABLECIMIENTO DE SALUD SIN INTERNAMIENTO,PUESTOS DE SALUD O POSTAS DE SALUD,I-1,PUBLICO EN GENERAL,12 HORAS,-14.7097998,-73.5626755
210,211.000000000000000,APURIMAC,AYMARAES,COTARUSE,LAHUALAHUA,ESTABLECIMIENTO DE SALUD SIN INTERNAMIENTO,PUESTOS DE SALUD O POSTAS DE SALUD,I-1,POBLACION EN GENERAL,8:00-18:00,-14.7927999,-73.5160980
211,212.000000000000000,APURIMAC,AYMARAES,COTARUSE,IZCAHUACA,ESTABLECIMIENTO DE SALUD SIN INTERNAMIENTO,PUESTOS DE SALUD O POSTAS DE SALUD,I-1,PUBLICO GENERAL,12 HORAS,-14.5185003,-73.2768326
212,213.000000000000000,APURIMAC,AYMARAES,IHUAYLLO,HUAYQUIPA,ESTABLECIMIENTO DE SALUD SIN INTERNAMIENTO,PUESTOS DE SALUD O POSTAS DE SALUD,I-1,PUBLICO EN GENERAL,12 HORAS,-14.0797005,-73.2397614
213,214.000000000000000,APURIMAC,AYMARAES,IHUAYLLO,IHUAYLLO,ESTABLECIMIENTO DE SALUD SIN INTERNAMIENTO,PUESTOS DE SALUD O POSTAS DE SALUD,I-1,PUBLICO EN GENERAL,12 HORAS,-14.1358004,-73.2686462
214,215.000000000000000,APURIMAC,AYMARAES,JUSTO APU SAHUARAURA,CHECCASA,ESTABLECIMIENTO DE SALUD SIN INTERNAMIENTO,PUESTOS DE SALUD O POSTAS DE SALUD,I-1,PUBLICO EN GENERAL,8:00 - 20:00,-14.1269999,-73.1943054
215,216.000000000000000,APURIMAC,AYMARAES,JUSTO APU SAHUARAURA,PICHIHUA,ESTABLECIMIENTO DE SALUD SIN INTERNAMIENTO,PUESTOS DE SALUD O POSTAS DE SALUD,I-2,PUBLICO EN GENERAL,8:00 - 20:00,-14.1485004,-73.1736679
216,217.000000000000000,APURIMAC,AYMARAES,LUCRE,LUCRE,ESTABLECIMIENTO DE SALUD SIN INTERNAMIENTO,CENTROS DE SALUD O CENTROS MEDICOS,I-3,PUBLICO EN GENERAL,8:00 - 20:00,-13.9493999,-73.2262039
217,218.000000000000000,APURIMAC,AYMARAES,LUCRE,SICUNA,ESTABLECIMIENTO DE SALUD SIN INTERNAMIENTO,PUESTOS DE SALUD O POSTAS DE SALUD,I-1,PUBLICO EN GENERAL,8:00 - 20:00,-13.9506998,-73.2498474
218,219.000000000000000,APURIMAC,AYMARAES,LUCRE,JUTA,ESTABLECIMIENTO DE SALUD SIN INTERNAMIENTO,PUESTOS DE SALUD O POSTAS DE SALUD,I-1,PUBLICO EN GENERAL,8:00 - 20:00,-13.9330997,-73.2536850
219,220.000000000000000,APURIMAC,AYMARAES,LUCRE,CAYHUACHAHUA,ESTABLECIMIENTO DE SALUD SIN INTERNAMIENTO,PUESTOS DE SALUD O POSTAS DE SALUD,I-1,POBLACION EN GENERAL,12 HORAS,-13.9310999,-73.2363892
220,221.000000000000000,APURIMAC,AYMARAES,POCOHUANCA,POCOHUANCA,ESTABLECIMIENTO DE SALUD SIN INTERNAMIENTO,PUESTOS DE SALUD O POSTAS DE SALUD,I-1,PUBLICO EN GENERAL,8:00 - 20:00,-14.2199001,-73.0905533
221,222.000000000000000,APURIMAC,AYMARAES,POCOHUANCA,TIAPARO,ESTABLECIMIENTO DE SALUD SIN INTERNAMIENTO,PUESTOS DE SALUD O POSTAS DE SALUD,I-1,PUBLICO EN GENERAL,8:00 - 20:00,-14.1791000,-73.0968170
222,223.000000000000000,APURIMAC,AYMARAES,POCOHUANCA,HUANCAPAMPA,ESTABLECIMIENTO DE SALUD SIN INTERNAMIENTO,PUESTOS DE SALUD O POSTAS DE SALUD,I-1,PUBLICO EN GENERAL,8:00 - 20:00,-14.2097998,-73.0738907
223,224.000000000000000,APURIMAC,AYMARAES,POCOHUANCA,CHANTA,ESTABLECIMIENTO DE SALUD SIN INTERNAMIENTO,PUESTOS DE SALUD O POSTAS DE SALUD,I-1,PUBLICO EN GENERAL,8:00 - 20:00,-14.2242002,-73.1169586
224,225.000000000000000,APURIMAC,AYMARAES,SAN JUAN DE CHACÑA,SAN JUAN DE CHACÑA,ESTABLECIMIENTO DE SALUD SIN INTERNAMIENTO,PUESTOS DE SALUD O POSTAS DE SALUD,I-2,PUBLICO EN GENERAL,8:00 - 20:00,-13.9235001,-73.1834946
225,226.000000000000000,APURIMAC,AYMARAES,SAÑAYCA,SAÑAYCA,ESTABLECIMIENTO DE SALUD SIN INTERNAMIENTO,PUESTOS DE SALUD O POSTAS DE SALUD,I-2,PUBLICO EN GENERAL,12 HORAS,-14.2049999,-73.3481369
226,227.000000000000000,APURIMAC,AYMARAES,SAÑAYCA,HUARQUIZA,ESTABLECIMIENTO DE SALUD SIN INTERNAMIENTO,PUESTOS DE SALUD O POSTAS DE SALUD,I-1,POBLACION EN GENERAL,12 HORAS,-14.2559004,-73.3385468
227,228.000000000000000,APURIMAC,AYMARAES,SAÑAYCA,OCCARALLA,ESTABLECIMIENTO DE SALUD SIN INTERNAMIENTO,PUESTOS DE SALUD O POSTAS DE SALUD,I-1,PUBLICO GENERAL,12 HORAS,-14.4260998,-73.4369812
228,229.000000000000000,APURIMAC,AYMARAES,SORAYA,CCARAHUATANI,ESTABLECIMIENTO DE SALUD SIN INTERNAMIENTO,PUESTOS DE SALUD O POSTAS DE SALUD,I-1,POBLACION EN GENERAL,12 HORAS,-14.1705999,-73.2884521
229,230.000000000000000,APURIMAC,AYMARAES,SORAYA,SORAYA,ESTABLECIMIENTO DE SALUD SIN INTERNAMIENTO,PUESTOS DE SALUD O POSTAS DE SALUD,I-1,PUBLICO EN GENERAL,12 HORAS,-14.1653004,-73.3156815
230,231.000000000000000,APURIMAC,AYMARAES,TAPAIRIHUA,TAPAYRIHUA,ESTABLECIMIENTO DE SALUD SIN INTERNAMIENTO,CENTROS DE SALUD O CENTROS MEDICOS,I-3,PUBLICO EN GENERAL,8:00-12:00,-14.1413002,-73.1412888
231,232.000000000000000,APURIMAC,AYMARAES,TAPAIRIHUA,LAYME,ESTABLECIMIENTO DE SALUD SIN INTERNAMIENTO,PUESTOS DE SALUD O POSTAS DE SALUD,I-1,PUBLICO EN GENERAL,12 HORAS,-14.1121998,-73.1251678
232,233.000000000000000,APURIMAC,AYMARAES,TAPAIRIHUA,SOCCO,ESTABLECIMIENTO DE SALUD SIN INTERNAMIENTO,PUESTOS DE SALUD O POSTAS DE SALUD,I-2,PUBLICO EN GENERAL,8.00-20.00,-14.1108999,-73.1675186
233,234.000000000000000,APURIMAC,AYMARAES,TINTAY,HUANCARPUQUIO,ESTABLECIMIENTO DE SALUD SIN INTERNAMIENTO,PUESTOS DE SALUD O POSTAS DE SALUD,I-1,PUBLICO EN GENERAL,8:00 - 20:00,-13.9013996,-73.1513596
234,235.000000000000000,APURIMAC,AYMARAES,TINTAY,TINTAY,ESTABLECIMIENTO DE SALUD SIN INTERNAMIENTO,CENTROS DE SALUD O CENTROS MEDICOS,I-3,PUBLICO EN GENERAL,8:00 - 20:00,-13.9624004,-73.1811447
235,236.000000000000000,APURIMAC,AYMARAES,TINTAY,SAN MATEO,ESTABLECIMIENTO DE SALUD SIN INTERNAMIENTO,PUESTOS DE SALUD O POSTAS DE SALUD,I-2,PUBLICO EN GENERAL,8:00 - 20:00,-13.9066000,-73.1341858
236,237.000000000000000,APURIMAC,AYMARAES,TINTAY,TAQUEBAMBA,ESTABLECIMIENTO DE SALUD SIN INTERNAMIENTO,PUESTOS DE SALUD O POSTAS DE SALUD,I-2,PUBLICO EN GENERAL,12 HORAS,-13.8968000,-73.0994797
237,238.000000000000000,APURIMAC,AYMARAES,TORAYA,TORAYA,ESTABLECIMIENTO DE SALUD SIN INTERNAMIENTO,PUESTOS DE SALUD O POSTAS DE SALUD,I-2,PUBLICO EN GENERAL,12 HORAS,-14.0503998,-73.2947388
238,239.000000000000000,APURIMAC,AYMARAES,TORAYA,LLINQUI,ESTABLECIMIENTO DE SALUD SIN INTERNAMIENTO,PUESTOS DE SALUD O POSTAS DE SALUD,I-1,POBLACION EN GENERAL,8:00-19:00,-14.0045004,-73.3000793
239,240.000000000000000,APURIMAC,AYMARAES,TORAYA,CONDEBAMBA,ESTABLECIMIENTO DE SALUD SIN INTERNAMIENTO,PUESTOS DE SALUD O POSTAS DE SALUD,I-1,PUBLICO EN GENERAL,12 HORAS,-14.0446997,-73.2863159
240,241.000000000000000,APURIMAC,AYMARAES,TORAYA,TANTA,ESTABLECIMIENTO DE SALUD SIN INTERNAMIENTO,PUESTOS DE SALUD O POSTAS DE SALUD,I-1,POBLACION EN GENERAL,8:00-19:00,-14.0319004,-73.2775879
241,242.000000000000000,APURIMAC,AYMARAES,YANACA,YANACA,ESTABLECIMIENTO DE SALUD SIN INTERNAMIENTO,PUESTOS DE SALUD O POSTAS DE SALUD,I-2,PUBLICO EN GENERAL,12 HORAS,-14.2256002,-73.1604538
242,243.000000000000000,APURIMAC,AYMARAES,YANACA,SARAYCA,ESTABLECIMIENTO DE SALUD SIN INTERNAMIENTO,PUESTOS DE SALUD O POSTAS DE SALUD,I-1,PUBLICO EN GENERAL,8:00 - 20:00,-14.2095003,-73.1318207
243,244.000000000000000,APURIMAC,COTABAMBAS,TAMBOBAMBA,PUMAMARCA,ESTABLECIMIENTO DE SALUD SIN INTERNAMIENTO,PUESTOS DE SALUD O POSTAS DE SALUD,I-2,PUBLICO EN GENERAL,8:00-20:00,-14.0283003,-72.2557144
244,245.000000000000000,APURIMAC,COTABAMBAS,TAMBOBAMBA,OCCORURO,ESTABLECIMIENTO DE SALUD SIN INTERNAMIENTO,PUESTOS DE SALUD O POSTAS DE SALUD,I-1,POBLACION EN GENERAL,ACTUALIZAR,-13.9109001,-72.2249374
245,246.000000000000000,APURIMAC,COTABAMBAS,TAMBOBAMBA,HUMAHUIRE,ESTABLECIMIENTO DE SALUD SIN INTERNAMIENTO,PUESTOS DE SALUD O POSTAS DE SALUD,I-1,PUBLICO GENERAL,8:00-20:00,-13.8214998,-72.1891327
246,247.000000000000000,APURIMAC,COTABAMBAS,TAMBOBAMBA,CHOCQUECCA,ESTABLECIMIENTO DE SALUD SIN INTERNAMIENTO,PUESTOS DE SALUD O POSTAS DE SALUD,I-2,PUBLICO EN GENERAL,8:00-20:00,-14.0302000,-72.2333069
247,248.000000000000000,APURIMAC,COTABAMBAS,TAMBOBAMBA,APUMARCA,ESTABLECIMIENTO DE SALUD SIN INTERNAMIENTO,PUESTOS DE SALUD O POSTAS DE SALUD,I-1,PUBLICO EN GENERAL,8:00-20:00,-13.9243002,-72.0808945
248,249.000000000000000,APURIMAC,COTABAMBAS,TAMBOBAMBA,ASACCASI,ESTABLECIMIENTO DE SALUD SIN INTERNAMIENTO,PUESTOS DE SALUD O POSTAS DE SALUD,I-2,PUBLICO EN GENERAL,8:00-20:00,-13.9797001,-72.2652054
249,250.000000000000000,APURIMAC,COTABAMBAS,TAMBOBAMBA,OCCACCAHUA,ESTABLECIMIENTO DE SALUD SIN INTERNAMIENTO,PUESTOS DE SALUD O POSTAS DE SALUD,I-2,PUBLICO EN GENERAL,8:00-20:00,-13.7923002,-72.2317505
250,251.000000000000000,APURIMAC,COTABAMBAS,TAMBOBAMBA,QQUELLO,ESTABLECIMIENTO DE SALUD SIN INTERNAMIENTO,PUESTOS DE SALUD O POSTAS DE SALUD,I-1,POBLACIÓN EN GENERAL,8:00-20:00 HRS,-14.0061998,-72.2760086
251,252.000000000000000,APURIMAC,COTABAMBAS,TAMBOBAMBA,OCRABAMBA,ESTABLECIMIENTO DE SALUD SIN INTERNAMIENTO,PUESTOS DE SALUD O POSTAS DE SALUD,I-1,PUBLICO EN GENERAL,8:00-20:00,-13.9940004,-72.1573181
252,253.000000000000000,APURIMAC,COTABAMBAS,TAMBOBAMBA,TAMBOBAMBA,ESTABLECIMIENTO DE SALUD CON INTERNAMIENTO,HOSPITALES O CLINICAS DE ATENCION GENERAL,II-1,PUBLICO EN GENERAL,24 HORAS,-13.9476995,-72.1809311
253,254.000000000000000,APURIMAC,COTABAMBAS,TAMBOBAMBA,CHACCARO,ESTABLECIMIENTO DE SALUD SIN INTERNAMIENTO,PUESTOS DE SALUD O POSTAS DE SALUD,I-2,PUBLICO EN GENERAL,8:00-20:00,-13.8487997,-72.1366882
254,255.000000000000000,APURIMAC,COTABAMBAS,TAMBOBAMBA,PAMPURA,ESTABLECIMIENTO DE SALUD SIN INTERNAMIENTO,PUESTOS DE SALUD O POSTAS DE SALUD,I-2,PUBLICO EN GENERAL,8:00-20:00,-13.9580002,-72.0733490
255,256.000000000000000,APURIMAC,COTABAMBAS,TAMBOBAMBA,CHUROC,ESTABLECIMIENTO DE SALUD SIN INTERNAMIENTO,PUESTOS DE SALUD O POSTAS DE SALUD,I-1,POBLACIÓN EN GENERAL,8:00-20:00 HRS,-13.7694998,-72.1895828
256,257.000000000000000,APURIMAC,COTABAMBAS,TAMBOBAMBA,CHUROC,ESTABLECIMIENTO DE SALUD SIN INTERNAMIENTO,PUESTOS DE SALUD O POSTAS DE SALUD,I-1,POBLACIÓN EN GENERAL,8:00-20:00 HRS,-13.7694998,-72.1895828
257,258.000000000000000,APURIMAC,COTABAMBAS,COTABAMBAS,COLCA,ESTABLECIMIENTO DE SALUD SIN INTERNAMIENTO,PUESTOS DE SALUD O POSTAS DE SALUD,I-2,PUBLICO EN GENERAL,8:00-20:00,-13.7437000,-72.2754135
258,259.000000000000000,APURIMAC,COTABAMBAS,COTABAMBAS,CCOCHAPATA,ESTABLECIMIENTO DE SALUD SIN INTERNAMIENTO,PUESTOS DE SALUD O POSTAS DE SALUD,I-2,POBLACION EN GENERAL,8:00-19:00,-13.7264996,-72.3522339
259,260.000000000000000,APURIMAC,COTABAMBAS,COTABAMBAS,SAN JUAN,ESTABLECIMIENTO DE SALUD SIN INTERNAMIENTO,PUESTOS DE SALUD O POSTAS DE SALUD,I-1,PUBLICO EN GENERAL,12 HORAS,-13.7672005,-72.3387375
260,261.000000000000000,APURIMAC,COTABAMBAS,COTABAMBAS,COTABAMBAS,ESTABLECIMIENTO DE SALUD CON INTERNAMIENTO,CENTROS DE SALUD CON CAMAS DE INTERNAMIENTO,I-4,PUBLICO EN GENERAL,12 HORAS,-13.7470999,-72.3564987
261,262.000000000000000,APURIMAC,COTABAMBAS,COYLLURQUI,ÑAHUINLLA,ESTABLECIMIENTO DE SALUD SIN INTERNAMIENTO,PUESTOS DE SALUD O POSTAS DE SALUD,I-2,PUBLICO EN GENERAL,12 HORAS,-13.9602003,-72.3972473
262,263.000000000000000,APURIMAC,COTABAMBAS,COYLLURQUI,SORCCO,ESTABLECIMIENTO DE SALUD SIN INTERNAMIENTO,PUESTOS DE SALUD O POSTAS DE SALUD,I-2,PUBLICO EN GENERAL,12 HORAS,-13.9780998,-72.4386520
263,264.000000000000000,APURIMAC,COTABAMBAS,COYLLURQUI,PFACO,ESTABLECIMIENTO DE SALUD SIN INTERNAMIENTO,PUESTOS DE SALUD O POSTAS DE SALUD,I-1,PUBLICO EN GENERAL,12 HORAS,-13.8234997,-72.4539948
264,265.000000000000000,APURIMAC,COTABAMBAS,COYLLURQUI,CHISCCAHUAYLLA,ESTABLECIMIENTO DE SALUD SIN INTERNAMIENTO,PUESTOS DE SALUD O POSTAS DE SALUD,I-1,PUBLICO EN GENERAL,12 HORAS,-13.8043003,-72.4286423
265,266.000000000000000,APURIMAC,COTABAMBAS,COYLLURQUI,YADQUIRE,ESTABLECIMIENTO DE SALUD SIN INTERNAMIENTO,PUESTOS DE SALUD O POSTAS DE SALUD,I-1,POBLACIÓN EN GENERAL,8:00-20:00 HRS.,-13.8622999,-72.3986740
266,267.000000000000000,APURIMAC,COTABAMBAS,COYLLURQUI,VILCARO,ESTABLECIMIENTO DE SALUD SIN INTERNAMIENTO,PUESTOS DE SALUD O POSTAS DE SALUD,I-2,PUBLICO EN GENERAL,12 HORAS,-13.8889999,-72.4719238
267,268.000000000000000,APURIMAC,COTABAMBAS,COYLLURQUI,COYLLURQUI,ESTABLECIMIENTO DE SALUD CON INTERNAMIENTO,CENTROS DE SALUD CON CAMAS DE INTERNAMIENTO,I-4,PUBLICO EN GENERAL,8:00-20:00,-13.8396997,-72.4298248
268,269.000000000000000,APURIMAC,COTABAMBAS,HAQUIRA,HAQUIRA,ESTABLECIMIENTO DE SALUD CON INTERNAMIENTO,CENTROS DE SALUD CON CAMAS DE INTERNAMIENTO,I-4,PUBLICO EN GENERAL,24 HORAS,-14.2154999,-72.1889267
269,270.000000000000000,APURIMAC,COTABAMBAS,HAQUIRA,HUANCCASCCA,ESTABLECIMIENTO DE SALUD SIN INTERNAMIENTO,PUESTOS DE SALUD O POSTAS DE SALUD,I-2,PUBLICO EN GENERAL,24 HORAS,-14.3115997,-72.2417679
270,271.000000000000000,APURIMAC,COTABAMBAS,HAQUIRA,LLAC-CHUA,ESTABLECIMIENTO DE SALUD SIN INTERNAMIENTO,PUESTOS DE SALUD O POSTAS DE SALUD,I-2,PUBLICO EN GENERAL,8:00-20:00,-14.2217999,-72.1468201
271,272.000000000000000,APURIMAC,COTABAMBAS,HAQUIRA,PATAN,ESTABLECIMIENTO DE SALUD SIN INTERNAMIENTO,PUESTOS DE SALUD O POSTAS DE SALUD,I-2,PUBLICO EN GENERAL,8:00-20:00,-14.2936001,-72.2777405
272,273.000000000000000,APURIMAC,COTABAMBAS,HAQUIRA,CCOCHA,ESTABLECIMIENTO DE SALUD SIN INTERNAMIENTO,PUESTOS DE SALUD O POSTAS DE SALUD,I-1,PUBLICO EN GENERAL,8:00-20:00,-14.1850996,-72.1051865
273,274.000000000000000,APURIMAC,COTABAMBAS,HAQUIRA,HAPURO,ESTABLECIMIENTO DE SALUD SIN INTERNAMIENTO,PUESTOS DE SALUD O POSTAS DE SALUD,I-1,PUBLICO EN GENERAL,8:00-20:00,-14.2178001,-72.1895294
274,275.000000000000000,APURIMAC,COTABAMBAS,HAQUIRA,PISCOCALLA,ESTABLECIMIENTO DE SALUD SIN INTERNAMIENTO,PUESTOS DE SALUD O POSTAS DE SALUD,I-1,POBLACIÓN EN GENERAL,8:00 - 20:00 HRS,-14.4004002,-72.2612991
275,276.000000000000000,APURIMAC,COTABAMBAS,HAQUIRA,MOCABAMBA,ESTABLECIMIENTO DE SALUD SIN INTERNAMIENTO,PUESTOS DE SALUD O POSTAS DE SALUD,I-1,PUBLICO EN GENERAL,8:00-20:00,-14.1468000,-72.1192780
276,277.000000000000000,APURIMAC,COTABAMBAS,HAQUIRA,QQUEUÑAPAMPA,ESTABLECIMIENTO DE SALUD SIN INTERNAMIENTO,PUESTOS DE SALUD O POSTAS DE SALUD,I-1,POBLACION EN GENERAL,8:00-20:00,-14.2959995,-72.2578049
277,278.000000000000000,APURIMAC,COTABAMBAS,HAQUIRA,ANTAPUNCO,ESTABLECIMIENTO DE SALUD SIN INTERNAMIENTO,PUESTOS DE SALUD O POSTAS DE SALUD,I-1,POBLACION EN GENERAL,8:00-20:00,-14.2593002,-72.1916733
278,279.000000000000000,APURIMAC,COTABAMBAS,HAQUIRA,MUTUHUASI,ESTABLECIMIENTO DE SALUD SIN INTERNAMIENTO,PUESTOS DE SALUD O POSTAS DE SALUD,I-1,PUBLICO EN GENERAL,8:00-20:00,-14.3855000,-72.3722992
279,280.000000000000000,APURIMAC,COTABAMBAS,HAQUIRA,PAMPA SAN JOSE,ESTABLECIMIENTO DE SALUD SIN INTERNAMIENTO,PUESTOS DE SALUD O POSTAS DE SALUD,I-1,PUBLICO EN GENERAL,12 HORAS,-14.3550997,-72.2483597
280,281.000000000000000,APURIMAC,COTABAMBAS,HAQUIRA,HUANCA UMUYTO,ESTABLECIMIENTO DE SALUD SIN INTERNAMIENTO,PUESTOS DE SALUD O POSTAS DE SALUD,I-1,PUBLICO EN GENERAL,8:00-20:00,-14.3501997,-72.2692947
281,282.000000000000000,APURIMAC,COTABAMBAS,HAQUIRA,CHOQUEMAYO,ESTABLECIMIENTO DE SALUD SIN INTERNAMIENTO,PUESTOS DE SALUD O POSTAS DE SALUD,I-1,POBLACIÓN EN GENERAL,8:00-20:00 HRS,-14.0822001,-72.1928635
282,283.000000000000000,APURIMAC,COTABAMBAS,MARA,MARA,ESTABLECIMIENTO DE SALUD CON INTERNAMIENTO,CENTROS DE SALUD CON CAMAS DE INTERNAMIENTO,I-4,PUBLICO EN GENERAL,8:00-20:00,-14.0866003,-72.1014557
283,284.000000000000000,APURIMAC,COTABAMBAS,MARA,CHACAMACHAY,ESTABLECIMIENTO DE SALUD SIN INTERNAMIENTO,PUESTOS DE SALUD O POSTAS DE SALUD,I-1,PUBLICO EN GENERAL,8:00 - 20:00,-14.1248999,-72.1657791
284,285.000000000000000,APURIMAC,COTABAMBAS,MARA,PISACCASA,ESTABLECIMIENTO DE SALUD SIN INTERNAMIENTO,PUESTOS DE SALUD O POSTAS DE SALUD,I-2,POBLACION EN GENERAL,8:00-20:00,-14.0742998,-72.1680756
285,286.000000000000000,APURIMAC,COTABAMBAS,MARA,HUARAQUERAY,ESTABLECIMIENTO DE SALUD SIN INTERNAMIENTO,PUESTOS DE SALUD O POSTAS DE SALUD,I-1,POBLACION EN GENERAL,12 HORAS,-14.0358000,-72.1160202
286,287.000000000000000,APURIMAC,COTABAMBAS,MARA,CURCA,ESTABLECIMIENTO DE SALUD SIN INTERNAMIENTO,PUESTOS DE SALUD O POSTAS DE SALUD,I-1,POBLACION EN GENERAL,8:00-20:00,-14.1429996,-72.0851288
287,288.000000000000000,APURIMAC,COTABAMBAS,CHALLHUAHUACHO,MINASCUCHO,ESTABLECIMIENTO DE SALUD SIN INTERNAMIENTO,PUESTOS DE SALUD O POSTAS DE SALUD,I-1,PUBLICO EN GENERAL,12 HORAS,-14.1360998,-72.1900787
288,289.000000000000000,APURIMAC,COTABAMBAS,CHALLHUAHUACHO,CCASA,ESTABLECIMIENTO DE SALUD SIN INTERNAMIENTO,PUESTOS DE SALUD O POSTAS DE SALUD,I-1,POBLACIÓN EN GENERAL,8:00-20:00HRS,-14.1449003,-72.3086853
289,290.000000000000000,APURIMAC,COTABAMBAS,CHALLHUAHUACHO,ANTA ANTA,ESTABLECIMIENTO DE SALUD SIN INTERNAMIENTO,PUESTOS DE SALUD O POSTAS DE SALUD,I-1,PUBLICO EN GENERAL,8:00-20:00,-14.2230997,-72.2847519
290,291.000000000000000,APURIMAC,COTABAMBAS,CHALLHUAHUACHO,KUCHUHUACHO,ESTABLECIMIENTO DE SALUD SIN INTERNAMIENTO,PUESTOS DE SALUD O POSTAS DE SALUD,I-1,PUBLICO EN GENERAL,12 HORAS,-14.2180004,-72.3955994
291,292.000000000000000,APURIMAC,COTABAMBAS,CHALLHUAHUACHO,PATARIO,ESTABLECIMIENTO DE SALUD SIN INTERNAMIENTO,PUESTOS DE SALUD O POSTAS DE SALUD,I-1,POBLACIÓN EN GENERAL,8:00-20:00 HRS,-14.2325001,-72.3176727
292,293.000000000000000,APURIMAC,COTABAMBAS,CHALLHUAHUACHO,CHOCCOLLO,ESTABLECIMIENTO DE SALUD SIN INTERNAMIENTO,PUESTOS DE SALUD O POSTAS DE SALUD,I-1,POBLACIÓN EN GENERAL,8:00-20:00 HRS,-14.2121000,-72.3529968
293,294.000000000000000,APURIMAC,COTABAMBAS,CHALLHUAHUACHO,TAMBULLA,ESTABLECIMIENTO DE SALUD SIN INTERNAMIENTO,PUESTOS DE SALUD O POSTAS DE SALUD,I-2,PUBLICO EN GENERAL,12 HORAS,-14.1915998,-72.3274765
294,295.000000000000000,APURIMAC,COTABAMBAS,CHALLHUAHUACHO,CHALHUAHUACHO,ESTABLECIMIENTO DE SALUD CON INTERNAMIENTO,CENTROS DE SALUD CON CAMAS DE INTERNAMIENTO,I-4,PUBLICO EN GENERAL,24 HORAS,-14.1203003,-72.2516632
295,296.000000000000000,APURIMAC,CHINCHEROS,CHINCHEROS,HOSPITAL CHINCHEROS,ESTABLECIMIENTO DE SALUD CON INTERNAMIENTO,HOSPITALES O CLINICAS DE ATENCION GENERAL,II-1,POBLACION GENERAL,24 HORAS,-13.5183001,-73.7180176
296,297.000000000000000,APURIMAC,CHINCHEROS,CHINCHEROS,CAYARA,ESTABLECIMIENTO DE SALUD SIN INTERNAMIENTO,PUESTOS DE SALUD O POSTAS DE SALUD,I-2,POLACION GENERAL,24 HORAS,-13.5635004,-73.7230453
297,298.000000000000000,APURIMAC,CHINCHEROS,CHINCHEROS,CALLEBAMBA,ESTABLECIMIENTO DE SALUD SIN INTERNAMIENTO,PUESTOS DE SALUD O POSTAS DE SALUD,I-1,POBLACION GENERAL,24 HORAS,-13.5256996,-73.8026428
298,299.000000000000000,APURIMAC,CHINCHEROS,CHINCHEROS,CASABAMBA,ESTABLECIMIENTO DE SALUD SIN INTERNAMIENTO,PUESTOS DE SALUD O POSTAS DE SALUD,I-1,POLACION GENERAL,24 HORAS,-13.5432997,-73.7309723
299,300.000000000000000,APURIMAC,CHINCHEROS,ANCO HUALLO,MUÑAPUCRO,ESTABLECIMIENTO DE SALUD SIN INTERNAMIENTO,PUESTOS DE SALUD O POSTAS DE SALUD,I-2,POBLACION GENERAL,24 HORAS,-13.6163998,-73.6853256
300,301.000000000000000,APURIMAC,CHINCHEROS,ANCO HUALLO,CENTRO MEDICO PARROQUIAL,ESTABLECIMIENTO DE SALUD SIN INTERNAMIENTO,PUESTOS DE SALUD O POSTAS DE SALUD,I-2,POBLACION GENERAL,24 HORAS,-13.5297003,-73.6733704
301,302.000000000000000,APURIMAC,CHINCHEROS,ANCO HUALLO,TOTORABAMBA,ESTABLECIMIENTO DE SALUD SIN INTERNAMIENTO,PUESTOS DE SALUD O POSTAS DE SALUD,I-2,POBLACION GENERAL,24 HORAS,-13.5393000,-73.6629181
302,303.000000000000000,APURIMAC,CHINCHEROS,ANCO HUALLO,CHUPARO,ESTABLECIMIENTO DE SALUD SIN INTERNAMIENTO,PUESTOS DE SALUD O POSTAS DE SALUD,I-1,POBLACION GENERAL,24 HORAS,-13.5211000,-73.6896133
303,304.000000000000000,APURIMAC,CHINCHEROS,ANCO HUALLO,URIPA,ESTABLECIMIENTO DE SALUD CON INTERNAMIENTO,CENTROS DE SALUD CON CAMAS DE INTERNAMIENTO,I-4,POBLACION GENERAL,24 HORAS,-13.5319004,-73.6751251
304,305.000000000000000,APURIMAC,CHINCHEROS,COCHARCAS,COCHARCAS,ESTABLECIMIENTO DE SALUD SIN INTERNAMIENTO,PUESTOS DE SALUD O POSTAS DE SALUD,I-2,POBLACION GENERAL,24 HORAS,-13.6120996,-73.7393112
305,306.000000000000000,APURIMAC,CHINCHEROS,COCHARCAS,URUCANCHA,ESTABLECIMIENTO DE SALUD SIN INTERNAMIENTO,PUESTOS DE SALUD O POSTAS DE SALUD,I-1,POBLACION GENERAL,12 HORAS,-13.5846996,-73.7630386
306,307.000000000000000,APURIMAC,CHINCHEROS,COCHARCAS,OSCCOLLO,ESTABLECIMIENTO DE SALUD SIN INTERNAMIENTO,PUESTOS DE SALUD O POSTAS DE SALUD,I-1,POBLACION GENERAL,12 HORAS,-13.6489000,-73.7132187
307,308.000000000000000,APURIMAC,CHINCHEROS,HUACCANA,CHUYAMA,ESTABLECIMIENTO DE SALUD SIN INTERNAMIENTO,PUESTOS DE SALUD O POSTAS DE SALUD,I-1,POBLACION GENERAL,24 HORAS,-13.3674002,-73.8252869
308,309.000000000000000,APURIMAC,CHINCHEROS,HUACCANA,SIMPE,ESTABLECIMIENTO DE SALUD SIN INTERNAMIENTO,PUESTOS DE SALUD O POSTAS DE SALUD,I-1,POBLACION GENERAL,24 HORAS,-13.2974997,-73.7577972
309,310.000000000000000,APURIMAC,CHINCHEROS,HUACCANA,POMACHUCO,ESTABLECIMIENTO DE SALUD SIN INTERNAMIENTO,PUESTOS DE SALUD O POSTAS DE SALUD,I-2,POBLACION GENERAL,24 HORAS,-13.3326998,-73.7409821
310,311.000000000000000,APURIMAC,CHINCHEROS,HUACCANA,SAURI,ESTABLECIMIENTO DE SALUD SIN INTERNAMIENTO,CENTROS DE SALUD O CENTROS MEDICOS,I-3,POBLACION GENERAL,24 HORAS,-13.3547001,-73.6785736
311,312.000000000000000,APURIMAC,CHINCHEROS,HUACCANA,RIO BLANCO,ESTABLECIMIENTO DE SALUD SIN INTERNAMIENTO,PUESTOS DE SALUD O POSTAS DE SALUD,I-2,POBLACION GENERAL,24 HORAS,-13.4343004,-73.8200684
312,313.000000000000000,APURIMAC,CHINCHEROS,HUACCANA,AHUAYRO,ESTABLECIMIENTO DE SALUD SIN INTERNAMIENTO,CENTROS DE SALUD O CENTROS MEDICOS,I-3,POBLACION GENERAL,24 HORAS,-13.4968996,-73.8083420
313,314.000000000000000,APURIMAC,CHINCHEROS,HUACCANA,HUACCANA,ESTABLECIMIENTO DE SALUD CON INTERNAMIENTO,CENTROS DE SALUD CON CAMAS DE INTERNAMIENTO,I-4,POBLACION GENERAL,24 HORAS,-13.3879004,-73.6875763
314,315.000000000000000,APURIMAC,CHINCHEROS,HUACCANA,MARA MARA,ESTABLECIMIENTO DE SALUD SIN INTERNAMIENTO,PUESTOS DE SALUD O POSTAS DE SALUD,I-1,POBLACION GENERAL,24 HORAS,-13.3393002,-73.6755447
315,316.000000000000000,APURIMAC,CHINCHEROS,HUACCANA,MOYACCASA,ESTABLECIMIENTO DE SALUD SIN INTERNAMIENTO,PUESTOS DE SALUD O POSTAS DE SALUD,I-1,POBLACION GENERAL,24 HORAS,-13.3852997,-73.7083817
316,317.000000000000000,APURIMAC,CHINCHEROS,OCOBAMBA,CHOCCEPUQUIO,ESTABLECIMIENTO DE SALUD SIN INTERNAMIENTO,PUESTOS DE SALUD O POSTAS DE SALUD,I-2,POBLACION GENERAL,24 HORAS,-13.4954996,-73.5437317
317,318.000000000000000,APURIMAC,CHINCHEROS,OCOBAMBA,SACHAPUNA,ESTABLECIMIENTO DE SALUD SIN INTERNAMIENTO,PUESTOS DE SALUD O POSTAS DE SALUD,I-1,POBLACION GENERAL,10 HORAS,-13.5888996,-73.4791107
318,319.000000000000000,APURIMAC,CHINCHEROS,OCOBAMBA,CHALLHUANI,ESTABLECIMIENTO DE SALUD SIN INTERNAMIENTO,CENTROS DE SALUD O CENTROS MEDICOS,I-3,POBLACION GENERAL,24 HORAS,-13.4744997,-73.5736694
319,320.000000000000000,APURIMAC,CHINCHEROS,OCOBAMBA,OCOBAMBA,ESTABLECIMIENTO DE SALUD CON INTERNAMIENTO,CENTROS DE SALUD CON CAMAS DE INTERNAMIENTO,I-4,POBLACION GENERAL,24 HORAS,-13.4812002,-73.5645370
320,321.000000000000000,APURIMAC,CHINCHEROS,OCOBAMBA,PISCOBAMBA,ESTABLECIMIENTO DE SALUD SIN INTERNAMIENTO,PUESTOS DE SALUD O POSTAS DE SALUD,I-2,POBLACION GENERAL,24 HORAS,-13.5608997,-73.4940109
321,322.000000000000000,APURIMAC,CHINCHEROS,OCOBAMBA,UMACA,ESTABLECIMIENTO DE SALUD SIN INTERNAMIENTO,PUESTOS DE SALUD O POSTAS DE SALUD,I-1,PUBLICO GENERAL,24 HORAS,-13.5437002,-73.5003433
322,323.000000000000000,APURIMAC,CHINCHEROS,ONGOY,ROCCHACC,ESTABLECIMIENTO DE SALUD SIN INTERNAMIENTO,CENTROS DE SALUD O CENTROS MEDICOS,I-3,POBLACION GENERAL,24 HORAS,-13.4383001,-73.5995712
323,324.000000000000000,APURIMAC,CHINCHEROS,ONGOY,HUAMBURQUE,ESTABLECIMIENTO DE SALUD SIN INTERNAMIENTO,PUESTOS DE SALUD O POSTAS DE SALUD,I-1,POBLACION GENERAL,24 HORAS,-13.3976002,-73.5933838
324,325.000000000000000,APURIMAC,CHINCHEROS,ONGOY,ONGOY,ESTABLECIMIENTO DE SALUD SIN INTERNAMIENTO,CENTROS DE SALUD O CENTROS MEDICOS,I-3,POBLACION GENERAL,24 HORAS,-13.4039001,-73.6676788
325,326.000000000000000,APURIMAC,CHINCHEROS,ONGOY,PORVENIR,ESTABLECIMIENTO DE SALUD SIN INTERNAMIENTO,PUESTOS DE SALUD O POSTAS DE SALUD,I-2,POBLACION GENERAL,24 HORAS,-13.4005003,-73.5695267
326,327.000000000000000,APURIMAC,CHINCHEROS,ONGOY,SANTA ROSA,ESTABLECIMIENTO DE SALUD SIN INTERNAMIENTO,PUESTOS DE SALUD O POSTAS DE SALUD,I-2,PUBLICO GENERAL,24 HORAS,-13.4347000,-73.6294861
327,328.000000000000000,APURIMAC,CHINCHEROS,ONGOY,SANTA ROSA,ESTABLECIMIENTO DE SALUD SIN INTERNAMIENTO,PUESTOS DE SALUD O POSTAS DE SALUD,I-2,PUBLICO GENERAL,24 HORAS,-13.4347000,-73.6294861
328,329.000000000000000,APURIMAC,CHINCHEROS,ONGOY,TURURO,ESTABLECIMIENTO DE SALUD SIN INTERNAMIENTO,PUESTOS DE SALUD O POSTAS DE SALUD,I-2,POBLACIO GENERAL,24 HORAS,-13.3849001,-73.6491547
329,330.000000000000000,APURIMAC,CHINCHEROS,ONGOY,MOZOBAMBA,ESTABLECIMIENTO DE SALUD SIN INTERNAMIENTO,PUESTOS DE SALUD O POSTAS DE SALUD,I-1,POBLACION GENERAL,8 HORAS,-13.4483995,-73.6060181
330,331.000000000000000,APURIMAC,CHINCHEROS,ONGOY,CALLAPAYOCC,ESTABLECIMIENTO DE SALUD SIN INTERNAMIENTO,PUESTOS DE SALUD O POSTAS DE SALUD,I-2,POBLACION GENERAL,24 HORAS,-13.4077997,-73.6761551
331,332.000000000000000,APURIMAC,CHINCHEROS,ONGOY,CABAÑA,ESTABLECIMIENTO DE SALUD SIN INTERNAMIENTO,PUESTOS DE SALUD O POSTAS DE SALUD,I-1,POBLACION GENERAL,12 HORAS,-13.4245005,-73.5279617
332,333.000000000000000,APURIMAC,CHINCHEROS,URANMARCA,URANMARCA,ESTABLECIMIENTO DE SALUD SIN INTERNAMIENTO,PUESTOS DE SALUD O POSTAS DE SALUD,I-2,POBLACION GENERAL,24 HORAS,-13.6716003,-73.6662445
333,334.000000000000000,APURIMAC,CHINCHEROS,URANMARCA,HUANCANE,ESTABLECIMIENTO DE SALUD SIN INTERNAMIENTO,PUESTOS DE SALUD O POSTAS DE SALUD,I-1,POBLACION GENERAL,24 HORAS,-13.7013998,-73.6310196
334,335.000000000000000,APURIMAC,CHINCHEROS,URANMARCA,TANCAYLLO,ESTABLECIMIENTO DE SALUD SIN INTERNAMIENTO,PUESTOS DE SALUD O POSTAS DE SALUD,I-1,POBLACION GENERAL,24 HORAS,-13.6345997,-73.6911316
335,336.000000000000000,APURIMAC,CHINCHEROS,RANRACANCHA,HUARIBAMBA,ESTABLECIMIENTO DE SALUD SIN INTERNAMIENTO,PUESTOS DE SALUD O POSTAS DE SALUD,I-2,POBLACION GENERAL,24 HORAS,-13.5318003,-73.5732880
336,337.000000000000000,APURIMAC,CHINCHEROS,RANRACANCHA,OCCEPATA,ESTABLECIMIENTO DE SALUD SIN INTERNAMIENTO,PUESTOS DE SALUD O POSTAS DE SALUD,I-1,POBLACION GENERAL,24 HORAS,-13.5202999,-73.5640488
337,338.000000000000000,APURIMAC,CHINCHEROS,RANRACANCHA,SAN CRISTOBAL,ESTABLECIMIENTO DE SALUD SIN INTERNAMIENTO,PUESTOS DE SALUD O POSTAS DE SALUD,I-1,POBLACION GENERAL,24 HORAS,-13.5445995,-73.6054993
338,339.000000000000000,APURIMAC,CHINCHEROS,RANRACANCHA,PADRE RUMI,ESTABLECIMIENTO DE SALUD SIN INTERNAMIENTO,PUESTOS DE SALUD O POSTAS DE SALUD,I-1,POBLACION GENERAL,24 HORAS,-13.5368004,-73.5954208
339,340.000000000000000,APURIMAC,CHINCHEROS,RANRACANCHA,RANRACANCHA,ESTABLECIMIENTO DE SALUD SIN INTERNAMIENTO,CENTROS DE SALUD O CENTROS MEDICOS,I-3,POBLACION GENERAL,24N HORAS,-13.5320997,-73.6051102
340,341.000000000000000,APURIMAC,CHINCHEROS,RANRACANCHA,MOTOY,ESTABLECIMIENTO DE SALUD SIN INTERNAMIENTO,PUESTOS DE SALUD O POSTAS DE SALUD,I-1,POBLACION GENERAL,24 HORAS,-13.5579004,-73.6241531
341,342.000000000000000,APURIMAC,GRAU,CHUQUIBAMBILLA,HUICHIHUA,ESTABLECIMIENTO DE SALUD SIN INTERNAMIENTO,PUESTOS DE SALUD O POSTAS DE SALUD,I-1,POBLACION EN GENERAL,8:00-20:00,-14.1934996,-72.7971344
342,343.000000000000000,APURIMAC,GRAU,CHUQUIBAMBILLA,CHISE,ESTABLECIMIENTO DE SALUD SIN INTERNAMIENTO,PUESTOS DE SALUD O POSTAS DE SALUD,I-1,POBLACION EN GENERAL,8:00-20:00,-14.1681004,-72.7944031
343,344.000000000000000,APURIMAC,GRAU,CHUQUIBAMBILLA,COTAHUARCAY,ESTABLECIMIENTO DE SALUD SIN INTERNAMIENTO,PUESTOS DE SALUD O POSTAS DE SALUD,I-2,PUBLICO GENERAL,8.00-20.00,-14.1913004,-72.7840424
344,345.000000000000000,APURIMAC,GRAU,CHUQUIBAMBILLA,SAN CAMILO DE LELIS (CHUQUIBAMBILLA),ESTABLECIMIENTO DE SALUD CON INTERNAMIENTO,CENTROS DE SALUD CON CAMAS DE INTERNAMIENTO,I-4,PUBLICO EN GENERAL,8:00-20:00,-14.1014004,-72.7020645
345,346.000000000000000,APURIMAC,GRAU,CHUQUIBAMBILLA,MARCCECCA,ESTABLECIMIENTO DE SALUD SIN INTERNAMIENTO,PUESTOS DE SALUD O POSTAS DE SALUD,I-1,PUBLICO GENERAL,8.00-20.00,-14.1553001,-72.7490311
346,347.000000000000000,APURIMAC,GRAU,CHUQUIBAMBILLA,PATA PATA,ESTABLECIMIENTO DE SALUD SIN INTERNAMIENTO,PUESTOS DE SALUD O POSTAS DE SALUD,I-1,POBLACION EN GENERAL,8:00-19:00,-14.1412001,-72.7367630
347,348.000000000000000,APURIMAC,GRAU,CHUQUIBAMBILLA,CHAPIMARCA,ESTABLECIMIENTO DE SALUD SIN INTERNAMIENTO,PUESTOS DE SALUD O POSTAS DE SALUD,I-1,POBLACION EN GENERAL,12 HORAS,-14.1681995,-72.7339401
348,349.000000000000000,APURIMAC,GRAU,CURPAHUASI,HUAYO,ESTABLECIMIENTO DE SALUD SIN INTERNAMIENTO,PUESTOS DE SALUD O POSTAS DE SALUD,I-1,POBLACION EN GENERAL,8.00-20.00,-14.0005999,-72.5758667
349,350.000000000000000,APURIMAC,GRAU,CURPAHUASI,CURPAHUASI,ESTABLECIMIENTO DE SALUD SIN INTERNAMIENTO,PUESTOS DE SALUD O POSTAS DE SALUD,I-2,PUBLICO EN GENERAL,12 HORAS,-14.0634003,-72.6701813
350,351.000000000000000,APURIMAC,GRAU,CURPAHUASI,RATCAY,ESTABLECIMIENTO DE SALUD SIN INTERNAMIENTO,PUESTOS DE SALUD O POSTAS DE SALUD,I-1,POBLACION EN GENERAL,8:00-19:00,-14.0225000,-72.6059189
351,352.000000000000000,APURIMAC,GRAU,CURPAHUASI,TAMBORACCAY,ESTABLECIMIENTO DE SALUD SIN INTERNAMIENTO,PUESTOS DE SALUD O POSTAS DE SALUD,I-1,PUBLICO EN GENERAL,12 HORAS,-13.9481001,-72.5721817
352,353.000000000000000,APURIMAC,GRAU,GAMARRA,PITUHUANCA,ESTABLECIMIENTO DE SALUD SIN INTERNAMIENTO,PUESTOS DE SALUD O POSTAS DE SALUD,I-2,PUBLICO EN GENERAL,8:00-20:00,-13.7858000,-72.4962234
353,354.000000000000000,APURIMAC,GRAU,GAMARRA,SAPSI,ESTABLECIMIENTO DE SALUD SIN INTERNAMIENTO,PUESTOS DE SALUD O POSTAS DE SALUD,I-1,POBLACION GENERAL,8:00-20:00,-13.7931004,-72.5539474
354,355.000000000000000,APURIMAC,GRAU,GAMARRA,PALPACACHI,ESTABLECIMIENTO DE SALUD SIN INTERNAMIENTO,CENTROS DE SALUD O CENTROS MEDICOS,I-3,PUBLICO EN GENERAL,12 HORAS,-13.8719997,-72.5081406
355,356.000000000000000,APURIMAC,GRAU,GAMARRA,UTAPARO,ESTABLECIMIENTO DE SALUD SIN INTERNAMIENTO,PUESTOS DE SALUD O POSTAS DE SALUD,I-1,POBLACION GENERAL,8:00-20:00,-13.7919998,-72.4773407
356,357.000000000000000,APURIMAC,GRAU,GAMARRA,CRUZ PATA (PALPACACHI),ESTABLECIMIENTO DE SALUD SIN INTERNAMIENTO,PUESTOS DE SALUD O POSTAS DE SALUD,I-1,PUBLICO EN GENERAL,8:00-20:00,-13.8074999,-72.5818634
357,358.000000000000000,APURIMAC,GRAU,GAMARRA,PACCAYPATA,ESTABLECIMIENTO DE SALUD SIN INTERNAMIENTO,CENTROS DE SALUD O CENTROS MEDICOS,I-3,PUBLICO EN GENERAL,8.00-20.00,-13.8071003,-72.5391159
358,359.000000000000000,APURIMAC,GRAU,GAMARRA,LLICCHIVILCA,ESTABLECIMIENTO DE SALUD SIN INTERNAMIENTO,PUESTOS DE SALUD O POSTAS DE SALUD,I-1,PUBLICO EN GENERAL,12 HORAS,-13.9056997,-72.5239792
359,360.000000000000000,APURIMAC,GRAU,GAMARRA,PICHIBAMBA,ESTABLECIMIENTO DE SALUD SIN INTERNAMIENTO,PUESTOS DE SALUD O POSTAS DE SALUD,I-2,PUBLICO EN GENERAL,12 HORAS,-13.8343000,-72.5701218
360,361.000000000000000,APURIMAC,GRAU,GAMARRA,TARIBAMBA,ESTABLECIMIENTO DE SALUD SIN INTERNAMIENTO,PUESTOS DE SALUD O POSTAS DE SALUD,I-1,POBLACION GENERAL,12 HORAS,-13.8399000,-72.5778122
361,362.000000000000000,APURIMAC,GRAU,GAMARRA,CCOLLAURO,ESTABLECIMIENTO DE SALUD SIN INTERNAMIENTO,PUESTOS DE SALUD O POSTAS DE SALUD,I-1,PUBLICO GENERAL,12 HORAS,-13.8783998,-72.4856720
362,363.000000000000000,APURIMAC,GRAU,HUAYLLATI,HUAYLLATI,ESTABLECIMIENTO DE SALUD SIN INTERNAMIENTO,PUESTOS DE SALUD O POSTAS DE SALUD,I-2,PUBLICO EN GENERAL,12 HORAS,-13.9284000,-72.4841766
363,364.000000000000000,APURIMAC,GRAU,HUAYLLATI,TAMBO,ESTABLECIMIENTO DE SALUD SIN INTERNAMIENTO,PUESTOS DE SALUD O POSTAS DE SALUD,I-1,POBLACION EN GENERAL,8:00-15:00,-13.9898996,-72.5408401
364,365.000000000000000,APURIMAC,GRAU,HUAYLLATI,CCORICHICHINA,ESTABLECIMIENTO DE SALUD SIN INTERNAMIENTO,PUESTOS DE SALUD O POSTAS DE SALUD,I-1,POBLACION EN GENERAL,12 HORAS,-13.9714003,-72.4770203
365,366.000000000000000,APURIMAC,GRAU,HUAYLLATI,KULLCO,ESTABLECIMIENTO DE SALUD SIN INTERNAMIENTO,PUESTOS DE SALUD O POSTAS DE SALUD,I-1,POBLACION EN GENERAL,8:00-17:00,-13.9577999,-72.4942474
366,367.000000000000000,APURIMAC,GRAU,HUAYLLATI,PAMPAHUITE,ESTABLECIMIENTO DE SALUD SIN INTERNAMIENTO,PUESTOS DE SALUD O POSTAS DE SALUD,I-1,PUBLICO EN GENERAL,12 HORAS,-13.9737997,-72.5272217
367,368.000000000000000,APURIMAC,GRAU,MAMARA,MAMARA,ESTABLECIMIENTO DE SALUD SIN INTERNAMIENTO,PUESTOS DE SALUD O POSTAS DE SALUD,I-2,PUBLICO EN GENERAL,8:00 - 20:00,-14.2236996,-72.5933151
368,369.000000000000000,APURIMAC,GRAU,MICAELA BASTIDAS,AYRIHUANCA,ESTABLECIMIENTO DE SALUD SIN INTERNAMIENTO,PUESTOS DE SALUD O POSTAS DE SALUD,I-2,POBLACION EN GENERAL,8:00 - 20:00,-14.1154003,-72.6169891
369,370.000000000000000,APURIMAC,GRAU,PATAYPAMPA,PIYAY,ESTABLECIMIENTO DE SALUD SIN INTERNAMIENTO,PUESTOS DE SALUD O POSTAS DE SALUD,I-1,PUBLICO GENERAL,12 HORAS,-14.2152004,-72.6800156
370,371.000000000000000,APURIMAC,GRAU,PATAYPAMPA,PATAYPAMPA,ESTABLECIMIENTO DE SALUD SIN INTERNAMIENTO,PUESTOS DE SALUD O POSTAS DE SALUD,I-2,PUBLICO EN GENERAL,12 HORAS,-14.1782999,-72.6716690
371,372.000000000000000,APURIMAC,GRAU,PROGRESO,PICOSAYHUAS,ESTABLECIMIENTO DE SALUD SIN INTERNAMIENTO,PUESTOS DE SALUD O POSTAS DE SALUD,I-1,POBLACION EN GENERAL,12 HORAS,-13.9960003,-72.4736710
372,373.000000000000000,APURIMAC,GRAU,PROGRESO,CCONCHACCOTA,ESTABLECIMIENTO DE SALUD SIN INTERNAMIENTO,PUESTOS DE SALUD O POSTAS DE SALUD,I-1,POBLACION EN GENERAL,12 HORAS,-14.1936998,-72.3970261
373,374.000000000000000,APURIMAC,GRAU,PROGRESO,CCONCCACCA,ESTABLECIMIENTO DE SALUD SIN INTERNAMIENTO,PUESTOS DE SALUD O POSTAS DE SALUD,I-1,PUBLICO EN GENERAL,8:00 - 20:00,-14.1463003,-72.3623505
374,375.000000000000000,APURIMAC,GRAU,PROGRESO,PACCAYURA,ESTABLECIMIENTO DE SALUD SIN INTERNAMIENTO,PUESTOS DE SALUD O POSTAS DE SALUD,I-1,PUBLICO EN GENERAL,8:00 - 20:00,-14.0018997,-72.5693741
375,376.000000000000000,APURIMAC,GRAU,PROGRESO,PROGRESO,ESTABLECIMIENTO DE SALUD SIN INTERNAMIENTO,CENTROS DE SALUD O CENTROS MEDICOS,I-3,POBLACION EN GENERAL,12 HORAS,-14.0726004,-72.4778671
376,377.000000000000000,APURIMAC,GRAU,SAN ANTONIO,SAN ANTONIO (VILCABAMBA),ESTABLECIMIENTO DE SALUD SIN INTERNAMIENTO,PUESTOS DE SALUD O POSTAS DE SALUD,I-1,PUBLICO GENERAL,8:00 - 20:00,-14.1661997,-72.6246872
377,378.000000000000000,APURIMAC,GRAU,SANTA ROSA,QUISCABAMBA,ESTABLECIMIENTO DE SALUD SIN INTERNAMIENTO,PUESTOS DE SALUD O POSTAS DE SALUD,I-1,POBACION EN GENERAL,8:00-18:00,-14.1182003,-72.6592026
378,379.000000000000000,APURIMAC,GRAU,SANTA ROSA,SANTA ROSA,ESTABLECIMIENTO DE SALUD SIN INTERNAMIENTO,PUESTOS DE SALUD O POSTAS DE SALUD,I-2,PUBLICO EN GENERAL,12 HORAS,-14.1406002,-72.6585922
379,380.000000000000000,APURIMAC,GRAU,TURPAY,TURPAY,ESTABLECIMIENTO DE SALUD SIN INTERNAMIENTO,PUESTOS DE SALUD O POSTAS DE SALUD,I-1,PUBLICO EN GENERAL,12 HORAS,-14.2282000,-72.6221466
380,381.000000000000000,APURIMAC,GRAU,VILCABAMBA,VILCABAMBA,ESTABLECIMIENTO DE SALUD CON INTERNAMIENTO,CENTROS DE SALUD CON CAMAS DE INTERNAMIENTO,I-4,PUBLICO GENERAL,12 HORAS,-14.0775003,-72.6275101
381,382.000000000000000,APURIMAC,GRAU,VIRUNDO,VIRUNDO,ESTABLECIMIENTO DE SALUD SIN INTERNAMIENTO,PUESTOS DE SALUD O POSTAS DE SALUD,I-2,PUBLICO EN GENERAL,12 HORAS,-14.2489996,-72.6798325
382,383.000000000000000,APURIMAC,GRAU,CURASCO,CCASANCCA,ESTABLECIMIENTO DE SALUD SIN INTERNAMIENTO,PUESTOS DE SALUD O POSTAS DE SALUD,I-1,PUBLICO EN GENERAL,12 HORAS,-14.0712996,-72.5447845
383,384.000000000000000,APURIMAC,GRAU,CURASCO,CURASCO,ESTABLECIMIENTO DE SALUD SIN INTERNAMIENTO,PUESTOS DE SALUD O POSTAS DE SALUD,I-2,PUBLICO GENERAL,12 HORAS,-14.0627003,-72.5690002